Time,Iter,Assembly_ID,Mass,Altitude,Distance,Velocity,FlightPathAngle,HeadingAngle,Latitude,Longitude,AngleAttack,AngleSideslip,ECEF_X,ECEF_Y,ECEF_Z,ECEF_vU,ECEF_vV,ECEF_vW,BODY_COM_X,BODY_COM_Y,BODY_COM_Z,Aero_Fx_B,Aero_Fy_B,Aero_Fz_B,Aero_Mx_B,Aero_My_B,Aero_Mz_B,Lift,Drag,Crosswind,Inertia_xx,Inertia_xy,Inertia_xz,Inertia_yy,Inertia_yz,Inertia_zz,Roll,Pitch,Yaw,distRoll,distPitch,distYaw,VelRoll,VelPitch,VelYaw,magnitudeOmega,angularMomentum_x,angularMomentum_y,angularMomentum_z,magnitudeAngularMomentum,Quat_w,Quat_x,Quat_y,Quat_z,Quat_prev_w,Quat_prev_x,Quat_prev_y,Quat_prev_z,Mach,Speedsound,Density,Temperature,Pressure,SpecificHeatRatio,qmax,Tmax,knudsen,N2_mass_pct,O2_mass_pct,O_mass_pct,He_mass_pct,Ar_mass_pct,N_mass_pct,H_mass_pct,Qstag,Qradstag,Pstag,Tstag,Rhostag,Aref,Lref,Temperature_obj_0,Mass_obj_0
0,0,1,286.35420111966,80000.00000000186,0,8000.000000000001,-2.0,0.0,0.0,0.0,0.0,0.0,6458137.000000002,2.771e-09,4.87e-10,-279.195973620008,0.0,7995.126616152766,4.35e-10,2.771e-09,-1.49e-09,-803.907900850389,-2.57055e-07,4.861657e-06,-5.105e-09,3.97584e-07,6.37783e-07,-4.861657e-06,803.907900850389,-2.57055e-07,67.8338637559,2.5061e-08,2.3271e-08,67.833863798227,4.8693e-08,67.833863703115,-0.0,-2.0,0.0,0.0,0.0,0.0,5.0,2.5,0.0,5.590169943749,5.919621335542,2.959810671258,4.155e-09,6.618337855225,0.694658370459,0.0,-0.719339800339,0.0,0.694658370459,0.0,-0.719339800339,0.0,27.582699424108,290.036876992817,1.3037552e-05,208.7,0.781984073685,1.402505547335,321141.92540963483,300.0,0.003073796605,0.763537904147,0.223502375653,4.904907e-06,7.64689e-07,0.012954016507,3.4092e-08,5e-12,,,767.410087397463,32163.629023627786,8.3020062e-05,1.0,1.541288137436,300.0,286.35420111966
0.25,1,1,286.35420111966,79930.51237821716,0,7999.381588296357,-1.99930763927,7.2956384e-05,0.017851153967,0.0,0.64195457134,0.007261289463,6458067.201006597,2.771e-09,1998.781654038679,-281.552086070428,0.010179645511,7994.425196216454,4.35e-10,2.771e-09,-1.49e-09,-811.672272360563,-0.103004720185,-9.109944349832,1.62662e-06,0.008195844394,-0.000237445273,0.013734520431,811.723400689121,0.000203870179,67.8338637559,2.5061e-08,2.3271e-08,67.833863798227,4.8693e-08,67.833863703115,1.249751744572,-1.357229389989,0.00681859146,1.249999999721,0.625000021008,3.3653e-08,4.999999998884,2.500000084031,1.34611e-07,5.590169980331,5.91962133422,2.959810770745,1.63525e-07,6.618337898534,0.698529813073,0.007576983863,-0.715497817442,0.007846196477,0.698581760445,0.007577547338,-0.71555102667,0.007846779973,27.571098960776,290.136479495312,1.3174265e-05,208.844574196148,0.790726900219,1.402505430933,322766.94051411666,314.148986816406,0.003041921904,0.763495653308,0.223544868875,4.620477e-06,7.64314e-07,0.012954061771,3.125e-08,5e-12,,,775.33765022796,32159.00916736127,8.3890211e-05,1.0,1.541288137436,303.973398596048,286.35420111966
0.5,2,1,286.35420111966,79861.058375866,0,7998.756318825109,-1.998618062017,0.000146535438,0.03570113004,2.2579e-08,1.283539492538,0.028893340682,6457996.812985079,0.002544914149,3997.387953092792,-283.907787325637,0.020444472629,7993.7162206212,4.35e-10,2.771e-09,-1.49e-09,-819.364946685262,-0.413851172485,-18.386626335871,6.567815e-06,0.018873334759,-0.000718592825,0.024763603402,819.57132364649,0.000673330741,67.8338637559,2.5061e-08,2.3271e-08,67.833863798227,4.8693e-08,67.833863703115,2.499244857973,-0.714803637341,0.027262789513,2.500000085302,1.250432705076,-1.2467575e-05,5.000000342325,2.501730736274,-5.000491e-05,5.590944473215,5.91962174083,2.961859731934,-5.9197869e-05,6.619254839456,0.70229709254,0.015152277421,-0.711549721398,0.015690643018,0.702401543722,0.015154530988,-0.711655548704,0.015692976655,27.559601539167,290.234831859138,1.3312281e-05,208.987380498498,0.799552586949,1.402505331406,324400.9539169791,324.678009033203,0.003010406826,0.763453953593,0.223586746018,4.351462e-06,7.63944e-07,0.012954156409,2.8569e-08,5e-12,,,783.338106671693,32154.331617664524,8.4768654e-05,1.0,1.541288137436,306.926543315252,286.35420111966
0.75,3,1,286.35420111966,79791.63795057064,0,7998.124163394389,-1.997931315071,0.000220738892,0.053549912729,6.7926e-08,1.924866107463,0.064896827208,6457925.836038248,0.007656032306,5995.817008248092,-286.263074389269,0.030794671869,7992.999661226446,4.35e-10,2.771e-09,-1.49e-09,-826.998969358568,-0.938311871907,-27.828979469432,1.4945578e-05,0.034308883222,-0.001603010267,0.030145495404,827.467598723556,0.00123806211,67.8338637559,2.5061e-08,2.3271e-08,67.833863798227,4.8693e-08,67.833863703115,3.74878918843,-0.072587121974,0.061327854583,3.750000517592,1.876861722675,-6.2903721e-05,5.000001729159,2.505716070395,-0.000201744587,5.592730134535,5.919623382738,2.966578065714,-0.000238846151,6.62136892723,0.705962344987,0.022724773588,-0.7074934557,0.023532153908,0.70611984814,0.02272984358,-0.707651300451,0.02353740403,27.548192784935,290.33208188409,1.3451618e-05,209.128629925702,0.808462877466,1.402505246852,326022.2286922642,333.747009277344,0.002979245861,0.763412809696,0.223628011124,4.097139e-06,7.6358e-07,0.012954292412,2.6045e-08,5e-12,,,791.412329945951,32149.596221171272,8.5655493e-05,1.0,1.541288137436,309.467909713586,286.35420111966
1.0,4,1,286.35420111966,79722.25105850809,0,7997.485079908299,-1.997247463791,0.000295567409,0.071397486479,1.36231e-07,2.56617705487,0.115287121046,6457854.27026965,0.015354700273,7994.066923554703,-288.617946303202,0.041230284755,7992.275475903444,4.35e-10,2.771e-09,-1.49e-09,-834.576938112599,-1.682322756428,-37.437947159239,2.6653897e-05,0.056433984754,-0.003132913104,0.026774277018,835.417916379198,0.001591780658,67.8338637559,2.5061e-08,2.3271e-08,67.833863798227,4.8693e-08,67.833863703115,4.998694689543,0.569686380017,0.109036717348,5.000001738857,2.505101924724,-0.000197963661,5.000004885059,2.512960808197,-0.00054023976,5.595982591646,5.919627119087,2.97515528661,-0.000639598794,6.625219590139,0.709528469967,0.030293357809,-0.703326108074,0.031369547035,0.709739570605,0.030302370762,-0.70353536337,0.031378880179,27.536858381312,290.428376729271,1.359229e-05,209.268532889803,0.817459542999,1.402505175443,327624.73816003895,341.921997070312,0.00294843368,0.763372225966,0.223668668237,3.856807e-06,7.6322e-07,0.012954462093,2.3672e-08,5e-12,,,799.561186227795,32144.80271991856,8.6550832e-05,1.0,1.541288137436,311.756568948428,286.35420111966
1.25,5,1,286.35420111966,79652.8976538837,0,7996.839021306404,-1.996566593176,0.000371019741,0.08924383564,2.27685e-07,3.207966133607,0.180106867615,6457782.115783074,0.025662271462,9992.135792530564,-290.972404600681,0.05175108494,7991.543617460364,4.35e-10,2.771e-09,-1.49e-09,-842.128241840684,-2.64589774279,-47.122963120592,-2.2754739e-05,-0.024787701029,0.001785593384,-0.085471167034,843.449786780424,-0.002923774813,67.8338637559,2.5061e-08,2.3271e-08,67.833863798227,4.8693e-08,67.833863703115,6.249273216059,1.212532736426,0.170454789931,6.250004367184,3.136321307255,-0.00049841179,5.000010513311,2.524877530124,-0.001201792517,5.601349223147,5.919633782516,2.98926378289,-0.001422827147,6.631573275418,0.712999842716,0.037856897305,-0.699043139248,0.039201646449,0.713265094144,0.037870980893,-0.699303198479,0.039216230313,27.52558409794,290.523862921586,1.3734315e-05,209.407299199179,0.826544383115,1.402505115422,329205.2573575954,349.471008300781,0.002917965123,0.763332206413,0.223708721407,3.62979e-06,7.62864e-07,0.012954658074,2.1446e-08,5e-12,,,807.785536378637,32139.95082260156,8.7454772e-05,1.0,1.541288137436,313.868375957012,286.35420111966
1.5,6,1,286.35420111966,79583.57768829304,0,7996.185916539277,-1.995889414824,0.000447065483,0.107088944455,3.42477e-07,3.851080211519,0.259445273215,6457709.372681925,0.038600042697,11990.021696895656,-293.326537249125,0.062352778687,7990.804011519656,4.35e-10,2.771e-09,-1.49e-09,-849.667800188632,-3.851833188885,-57.084407186627,0.000251941927,-0.027067981438,-0.001928024606,-0.121232912374,851.591933990943,-0.01021274094,67.8338637559,2.5061e-08,2.3271e-08,67.833863798227,4.8693e-08,67.833863703115,7.500841691017,1.856817778102,0.245711530492,7.500005794268,3.766232133713,-0.000704597498,5.000005708334,2.519643305828,-0.000824742829,5.598987422041,5.919628093785,2.983066857724,-0.000976428877,6.62877708177,0.716382891917,0.045414227731,-0.694637700444,0.047027281547,0.716702870356,0.045434512378,-0.694947966211,0.047048286678,27.514355723617,290.618686363637,1.3877709e-05,209.545138061754,0.835719226453,1.402505065101,330761.46545992454,356.549987792969,0.002887835191,0.763292754713,0.223748174694,3.415432e-06,7.62513e-07,0.012954873281,1.9364e-08,4e-12,,,816.086232089599,32135.040052505767,8.8367417e-05,1.0,1.541288137436,315.849688967069,286.35420111966
1.75,7,1,286.35420111966,79514.29108907665,0,7995.525669462941,-1.995215481231,0.000523687368,0.124932797001,4.80789e-07,4.490915015371,0.353008772415,6457636.041047612,0.054188237369,13987.72269977557,-295.680269502541,0.073032904958,7990.056564501526,4.35e-10,2.771e-09,-1.49e-09,-857.156176095353,-5.291300206819,-67.199968223222,0.000313282451,-0.018791687691,-0.002231677432,-0.134448025454,859.802608491932,-0.012636753825,67.8338637559,2.5061e-08,2.3271e-08,67.833863798227,4.8693e-08,67.833863703115,8.753702187847,2.497953246778,0.334580770827,8.750020521492,4.394714026864,-0.001012564678,5.000058908897,2.513927572607,-0.001231868721,5.596465174577,5.919691079221,2.976299862455,-0.001458435104,6.625790931783,0.719650890508,0.052964180546,-0.690137214801,0.054845383741,0.720025991693,0.052991786885,-0.690496932673,0.054873970614,27.503159058344,290.712992369407,1.4022486e-05,209.682258129745,0.844985934313,1.402505022859,332292.034277775,363.260009765625,0.002858039029,0.7632538742,0.22378703218,3.213097e-06,7.62166e-07,0.012955100932,1.7421e-08,4e-12,,,824.464118077022,32130.06973867909,8.9288868e-05,1.0,1.541288137436,317.726151883602,286.35420111966
2.0,8,1,286.35420111966,79445.03779996264,0,7994.85822037781,-1.994544682594,0.000600915927,0.142775377147,6.42793e-07,5.127036306382,0.460903097989,6457562.120980237,0.072446463608,15985.23684090095,-298.033574941732,0.083795668568,7989.301217573936,4.35e-10,2.771e-09,-1.49e-09,-864.595576548531,-6.979045242839,-77.449484797138,0.000649414167,-0.01232453665,-0.006141532017,-0.137474499606,868.08560726777,-0.017619345305,67.8338637559,2.5061e-08,2.3271e-08,67.833863798227,4.8693e-08,67.833863703115,10.008158668705,3.135556562627,0.436786543955,10.000051787057,5.022203896717,-0.001438343328,5.000125062258,2.50995947941,-0.0017031146,5.594743079633,5.919769399788,2.971601940623,-0.002016354538,6.623752101782,0.722802877651,0.060507060526,-0.685543166264,0.062653514454,0.723233467281,0.060543105917,-0.685951559461,0.062690838536,27.491980129037,290.806925614409,1.4168664e-05,209.818867421161,0.854346395978,1.40250498714,333796.1828450568,369.669006347656,0.002828571937,0.763215567902,0.223825297956,3.022172e-06,7.61822e-07,0.012955334532,1.5612e-08,4e-12,,,832.920039695738,32125.039506993195,9.0219227e-05,1.0,1.541288137436,319.522030731042,286.35420111966
2.25,9,1,286.35420111966,79375.8177689667,0,7994.183506267962,-1.993876986676,0.000678735217,0.160616668626,8.28675e-07,5.759568304884,0.583048592534,6457487.612586501,0.09339538075,17982.562145294436,-300.386437753278,0.094638791391,7988.537908212246,4.35e-10,2.771e-09,-1.49e-09,-871.972938616718,-8.908286940611,-87.831983487825,0.000139580398,-0.004624187521,-0.000926358584,-0.133560127466,876.430603399758,-0.012865638056,67.8338637559,2.5061e-08,2.3271e-08,67.833863798227,4.8693e-08,67.833863703115,11.264508243289,3.769774653742,0.552328511942,11.250117335536,5.649043147658,-0.002188336778,5.000262193916,2.507357003766,-0.002999973801,5.593699147441,5.919931753284,2.968520806552,-0.003551737619,6.622516165123,0.725841173298,0.068041724112,-0.680853605312,0.070450571747,0.726327607497,0.068087323373,-0.681309890365,0.070497785337,27.480805049948,290.9006301576,1.4316259e-05,209.955173346669,0.863802530952,1.402504956453,335273.1948829606,375.828002929688,0.002799429355,0.763177838532,0.223862976123,2.842063e-06,7.61482e-07,0.012955567861,1.3934e-08,4e-12,,,841.454836368082,32119.948962505452,9.1158596e-05,1.0,1.541288137436,321.24774474899,286.35420111966
2.5,10,1,286.35420111966,79306.63094572008,0,7993.501473132882,-1.993212381809,0.000757206273,0.178456655033,1.038614e-06,6.388541300238,0.719556427996,6457412.515977062,0.117055078598,19979.6966223475,-302.73884523992,0.105570728527,7987.766582807434,4.35e-10,2.771e-09,-1.49e-09,-879.287152366359,-11.102062850703,-98.336435728653,0.000340781949,-0.002052542181,-0.002823523819,-0.130383810322,884.83851040521,-0.014555013052,67.8338637559,2.5061e-08,2.3271e-08,67.833863798227,4.8693e-08,67.833863703115,12.523047315436,4.40069689145,0.681030012237,12.50019025253,6.275638285268,-0.002987233213,5.000291667976,2.50638055044,-0.00319558574,5.593287981163,5.919966648338,2.967364759762,-0.003783327341,6.622029375386,0.728767594434,0.075568248252,-0.676067024706,0.078234335586,0.729310217989,0.075624514628,-0.676570408632,0.07829258707,27.469620063833,290.994249449309,1.4465286e-05,210.091382717238,0.873356290008,1.402504929366,337049.3974853967,381.773986816406,0.002770606858,0.763140688499,0.223900070802,2.672195e-06,7.61146e-07,0.01295579497,1.2384e-08,4e-12,,,850.069344468556,32114.797787767387,9.2107074e-05,1.0,1.541288137436,322.915299634139,286.35420111966
2.75,11,1,286.35420111966,79237.47728067674,0,7992.812066175932,-1.992550904614,0.000836288827,0.196295319841,1.272808e-06,7.014055486337,0.870053978331,6457336.831265752,0.14344776073,21976.63826804936,-305.090791324499,0.116585808006,7986.987186709659,4.35e-10,2.771e-09,-1.49e-09,-886.53639882408,-13.556133190619,-108.971651379986,0.000679020646,0.009536832778,-0.006716895062,-0.120709811574,893.31145810074,-0.015703571051,67.8338637559,2.5061e-08,2.3271e-08,67.833863798227,4.8693e-08,67.833863703115,13.784061218288,5.028375336798,0.823225386894,13.750281159577,6.90212506809,-0.003935185008,5.000363628188,2.505947131287,-0.00379180718,5.593158483068,5.920051843779,2.966851624308,-0.004489208372,6.621876059448,0.731584031911,0.083083478811,-0.671181793974,0.086005460523,0.732183178213,0.083151521793,-0.671731472578,0.086075896524,27.45841150744,291.087926335804,1.4615762e-05,210.22770174793,0.883009656011,1.402504904508,338807.91820495995,387.536010742188,0.002742100148,0.763104119911,0.223936586135,2.512013e-06,7.60813e-07,0.012956010168,1.0956e-08,4e-12,,,858.764395391601,32109.585664333255,9.3064763e-05,1.0,1.541288137436,324.532698859771,286.35420111966
3.0,12,1,286.35420111966,79168.35672342757,0,7992.115228740854,-1.991892546676,0.000915986342,0.214132646402,1.531442e-06,7.635946654046,1.034543470254,6457260.558567921,0.172594212731,23973.385064726775,-307.442263496366,0.127684454931,7986.199663656323,4.35e-10,2.771e-09,-1.49e-09,-893.718868247493,-16.266189601603,-119.721095236804,-0.000127587533,0.021875733724,-0.002031787439,-0.119718565286,901.848729347097,-0.008539730192,67.8338637559,2.5061e-08,2.3271e-08,67.833863798227,4.8693e-08,67.833863703115,15.047842781583,5.652669236945,0.978840393943,15.00040791248,7.529115305472,-0.00523772533,5.000507011613,2.507960949528,-0.005210161285,5.594190347434,5.920221598895,2.969235832594,-0.006168432213,6.623097708711,0.73429097706,0.090586869014,-0.666197726927,0.0937622995,0.734946960756,0.090667795392,-0.666792879067,0.09384606267,27.447165807182,291.181803064331,1.4767701e-05,210.364336063431,0.892764644886,1.402504880566,340538.4016515449,393.136993408203,0.002713905046,0.763068134581,0.223972526285,2.36098e-06,7.60483e-07,0.012956208019,9.648e-09,4e-12,,,867.540815511653,32104.31226413342,9.4031763e-05,1.0,1.541288137436,326.106423904498,286.35420111966
3.25,13,1,286.35420111966,79099.2692242983,0,7991.410904800828,-1.991237394843,0.000996350954,0.231968617939,1.814702e-06,8.254527670629,1.213132475315,6457183.698002047,0.204515326464,25969.934980640857,-309.793262461308,0.138873878367,7985.403957510051,4.35e-10,2.771e-09,-1.49e-09,-900.833344401711,-19.25841067812,-130.590264644411,0.000290879815,0.041954727805,-0.008204146029,-0.12142915756,910.453405254817,-0.010128398496,67.8338637559,2.5061e-08,2.3271e-08,67.833863798227,4.8693e-08,67.833863703115,16.314690957802,6.273927461501,1.147839114487,16.250527929958,8.157260374644,-0.006647524822,5.000480069914,2.512580276686,-0.005639197968,5.596239127928,5.920189701966,2.974704766115,-0.006676379149,6.62552330966,0.736891755195,0.098078113225,-0.661111468613,0.101502960053,0.737604892407,0.098173029679,-0.661751268402,0.10160119095,27.435869487645,291.276021283002,1.4921121e-05,210.501490697088,0.902623306151,1.402504856283,342240.2404461575,398.596008300781,0.00268601749,0.763032734033,0.224007895442,2.218575e-06,7.60156e-07,0.012956383333,8.456e-09,4e-12,,,876.39942648987,32098.977269193863,9.5008174e-05,1.0,1.541288137436,327.64161764582,286.35420111966
3.5,14,1,286.35420111966,79030.21473101142,0,7990.69903564123,-1.990585498792,0.001077327924,0.249803217549,2.122791e-06,8.870155961942,1.405477409289,6457106.249686431,0.239233796056,27966.28597001837,-312.143783550597,0.150146387725,7984.600009646347,4.35e-10,2.771e-09,-1.49e-09,-907.908825417167,-22.505783781488,-141.515673201242,-0.000741443013,-0.005145383138,0.005530724196,-0.202715261093,919.147208030102,-0.014580533618,67.8338637559,2.5061e-08,2.3271e-08,67.833863798227,4.8693e-08,67.833863703115,17.584897502676,6.89240524733,1.330676516358,17.500663303129,8.787620256521,-0.008490425621,5.000541492681,2.52143952751,-0.007371603199,5.600279176206,5.920262421874,2.985193448158,-0.008727415732,6.630306420865,0.739389514105,0.105553768233,-0.655919771444,0.109228210056,0.740160120714,0.105663778491,-0.656603384211,0.109342049891,27.424509159709,291.370722046721,1.5076036e-05,210.639370099761,0.912587724167,1.402504830458,343912.611380897,403.928009033203,0.002658433525,0.762997919511,0.224042697819,2.084298e-06,7.59832e-07,0.01295653116,7.377e-09,4e-12,,,885.34104496891,32093.580345035734,9.5994096e-05,1.0,1.541288137436,329.142559170723,286.35420111966
3.75,15,1,286.35420111966,78961.19319001403,0,7989.979543603121,-1.989937389778,0.001158899393,0.267636428199,2.455894e-06,9.483601850412,1.611820941549,6457028.2137405425,0.276770392987,29962.435972429957,-314.493888363278,0.161499433492,7983.787739869867,4.35e-10,2.771e-09,-1.49e-09,-914.932025174682,-26.056996840493,-152.621225498648,-0.000200472775,-0.018072925428,0.004011185924,-0.245257502082,927.940060232766,-0.026669634013,67.8338637559,2.5061e-08,2.3271e-08,67.833863798227,4.8693e-08,67.833863703115,18.858784772907,7.50889342896,1.527427281842,18.750759535113,9.417708510869,-0.010041356526,5.000384927937,2.520353017393,-0.006203723619,5.599648850242,5.920077061075,2.983907102465,-0.00734473476,6.62956016266,0.74179009182,0.113013621472,-0.650616140421,0.116935960527,0.742618506911,0.113139832634,-0.65134273442,0.117066552072,27.413072335528,291.466036561248,1.5232462e-05,210.778164843356,0.922659948018,1.402504801987,345554.6666341355,409.144989013672,0.002631149335,0.762963688718,0.224076940692,1.957666e-06,7.5951e-07,0.012956647004,6.406e-09,4e-12,,,894.3664669662,32088.121014721637,9.6989626e-05,1.0,1.541288137436,330.620659212271,286.35420111966
4.0,16,1,286.35420111966,78892.20452986137,0,7989.252342358802,-1.989292858743,0.00124101761,0.285468232673,2.81419e-06,10.092098897426,1.831334115596,6456949.590268453,0.31714525136,31958.382907397423,-316.843534859088,0.172926300486,7982.967063341805,4.35e-10,2.771e-09,-1.49e-09,-921.898139317856,-29.898954480045,-163.848387213132,0.001368057793,-0.016841238208,-0.00465879368,-0.262336671706,936.82247527723,-0.041761026687,67.8338637559,2.5061e-08,2.3271e-08,67.833863798227,4.8693e-08,67.833863703115,20.136578188858,8.120487826367,1.738045702662,20.000845184022,10.046842685766,-0.01138053478,5.000342595637,2.516536699585,-0.005356713015,5.597893508139,5.920026942835,2.979388871199,-0.006341938355,6.627481970545,0.744078226464,0.120454457768,-0.64521810037,0.124627121694,0.744964657427,0.120597956875,-0.645986757861,0.124775591755,27.401561744443,291.561934201766,1.5390412e-05,210.917833164624,0.932840819485,1.402504770615,347165.5971875681,414.257995605469,0.00260416181,0.762929982931,0.224110683584,1.838267e-06,7.59191e-07,0.012956730486,5.538e-09,4e-12,,,903.476278953798,32082.598801081804,9.7994842e-05,1.0,1.541288137436,332.0650926133,286.35420111966
4.25,17,1,286.35420111966,78823.24868708408,0,7988.517353857418,-1.98865178009,0.001323663841,0.303298613569,3.197845e-06,10.69469595635,2.063955411131,6456870.379384737,0.360376826482,33954.12467323287,-319.192692838224,0.18442431851,7982.137903075058,4.35e-10,2.771e-09,-1.49e-09,-928.791196554627,-34.023521242019,-175.164602832024,0.002023687029,-0.014221166741,-0.008003127868,-0.270033252181,945.77653251758,-0.050014481055,67.8338637559,2.5061e-08,2.3271e-08,67.833863798227,4.8693e-08,67.833863703115,21.41853136714,8.726261754425,1.96219496201,21.25100305343,10.675087802642,-0.012965653278,5.000631477632,2.512980467506,-0.006340473993,5.596554851581,5.920368957237,2.975178561738,-0.007506636851,6.625897102554,0.74624986476,0.127876590076,-0.63973085444,0.132299474424,0.747194466222,0.128038455987,-0.64054062437,0.132466938812,27.389992981469,291.658247567351,1.5549894e-05,211.058136528963,0.943130108963,1.402504736768,348744.94590532116,419.276000976562,0.002577468396,0.762896698419,0.224144027652,1.725745e-06,7.58875e-07,0.012956784539,4.766e-09,4e-12,,,912.670889860984,32077.013336908178,9.9009801e-05,1.0,1.541288137436,333.487198452155,286.35420111966
4.5,18,1,286.35420111966,78754.32560321261,0,7987.774515692282,-1.9880141292,0.001406880998,0.321127553308,3.607017e-06,11.291189177853,2.309991012278,6456790.581211528,0.406482906109,35949.659149001636,-321.541346686262,0.195999407285,7981.300197179561,4.35e-10,2.771e-09,-1.49e-09,-935.597802714938,-38.44166429463,-186.56579289182,0.001494603824,-0.00283987666,-0.006844348333,-0.265038678416,954.791983869028,-0.04868326141,67.8338637559,2.5061e-08,2.3271e-08,67.833863798227,4.8693e-08,67.833863703115,22.704916726346,9.326142876659,2.199423523324,22.501267754357,11.302582176483,-0.014973261225,5.001058803709,2.509977495364,-0.008030431787,5.595591181746,5.920874878948,2.971623270144,-0.009507418894,6.624756190445,0.748305600658,0.135282017866,-0.63415429602,0.139949392657,0.749308509983,0.135463328278,-0.635004215166,0.140136958473,27.378381985415,291.754805669214,1.5710916e-05,211.198830814366,0.953527513129,1.402504700877,350293.0834414869,424.205993652344,0.002551066551,0.762863734266,0.224177071236,1.619758e-06,7.58561e-07,0.012956812093,4.082e-09,4e-12,,,921.950702405623,32071.364362636665,0.000100034559,1.0,1.541288137436,334.888494700193,286.35420111966
4.75,19,1,286.35420111966,78685.4352211187,0,7987.02377440205,-1.987379860978,0.001490729221,0.338955034174,4.041879e-06,11.881447292922,2.56945774793,6456710.195874856,0.45548275793,37944.98419829653,-323.88947820689,0.207659883095,7980.453892833902,4.35e-10,2.771e-09,-1.49e-09,-942.352864842188,-43.167829634996,-198.030747040319,0.001559131512,-0.00204600177,-0.007023313386,-0.266693293915,963.902737002059,-0.051377498296,67.8338637559,2.5061e-08,2.3271e-08,67.833863798227,4.8693e-08,67.833863703115,23.995989801565,9.920041468344,2.449582634307,23.751611356216,11.929926631725,-0.017342186024,5.001374407436,2.509377820966,-0.009475699198,5.595606562348,5.921248529859,2.97091330107,-0.011218506053,6.62477439991,0.75024619358,0.142670733589,-0.628488156281,0.147574890176,0.751307530563,0.142872562972,-0.629377248061,0.147783657231,27.366744604278,291.851438301996,1.5873489e-05,211.339672591448,0.964032687639,1.402504663358,351986.1673848759,429.054992675781,0.002524953728,0.762830993792,0.224209908533,1.519976e-06,7.5825e-07,0.012956815968,3.479e-09,4e-12,,,931.316117727905,32065.651671524247,0.000101069174,1.0,1.541288137436,336.270666907231,286.35420111966
5.0,20,1,286.35420111966,78616.57748565635,0,7986.265046925028,-1.986749051737,0.001575183363,0.35678103833,4.50262e-06,12.465806806329,2.842128510547,6456629.223505304,0.507397728704,39940.097671505006,-326.237084825436,0.219402177164,7979.598906967924,4.35e-10,2.771e-09,-1.49e-09,-949.010204087816,-48.205451521646,-209.570245021974,0.002238643118,0.009576962572,-0.012289677406,-0.258748285981,973.069242574962,-0.053119563072,67.8338637559,2.5061e-08,2.3271e-08,67.833863798227,4.8693e-08,67.833863703115,25.292010131002,10.5081953473,2.712949515124,25.002037265459,12.55716307745,-0.020081875338,5.001703636969,2.5089457829,-0.010958757255,5.595709812701,5.921638312691,2.970401800718,-0.012974334476,6.624896640506,0.752074704092,0.150040387352,-0.62272947598,0.155175775731,0.753194586789,0.15026380616,-0.623656756158,0.155406841428,27.35509646375,291.94797603833,1.6037621e-05,211.480419119272,0.974645246091,1.402504624607,353792.8132493753,433.829010009766,0.002499127377,0.762798384434,0.224242629716,1.426077e-06,7.57941e-07,0.012956798878,2.95e-09,4e-12,,,940.767526306089,32059.87480274463,0.000102113702,1.0,1.541288137436,337.636440585057,286.35420111966
5.25,21,1,286.35420111966,78547.75233968311,0,7985.498284727399,-1.986121676327,0.001660249474,0.374605547754,4.989424e-06,13.044052069375,3.127851999815,6456547.664234098,0.562248272995,41934.99739824699,-328.584151128657,0.231227067018,7978.735191591794,4.35e-10,2.771e-09,-1.49e-09,-955.593255040888,-53.551150246928,-221.167468621446,0.002167790827,0.021666978245,-0.014669760599,-0.258497586151,982.314193342817,-0.051817715963,67.8338637559,2.5061e-08,2.3271e-08,67.833863798227,4.8693e-08,67.833863703115,26.593219998715,11.090349480774,2.98952352748,26.252581353868,13.184905096209,-0.023470343361,5.002176353636,2.510968075036,-0.013553872093,5.597044993045,5.922197973424,2.972796041452,-0.016046753903,6.626477392915,0.753791145194,0.157389898146,-0.616878811801,0.162750916864,0.754969668397,0.157635971144,-0.617843277884,0.163005371607,27.343453187197,292.044250229022,1.6203319e-05,211.620828350668,0.985364759705,1.402504585006,355564.97282863816,438.598999023438,0.002473584941,0.762765817626,0.22427532106,1.33775e-06,7.57635e-07,0.012956763436,2.489e-09,4e-12,,,950.305323393325,32054.033553490604,0.0001031682,1.0,1.541288137436,338.985721856356,286.35420111966
5.5,22,1,286.35420111966,78478.95972729611,0,7984.723419466437,-1.985497818179,0.001745946712,0.392428544315,5.502474e-06,13.616543142876,3.426746284086,6456465.5181963155,0.62005503975,43929.681196144935,-330.930675929317,0.243137154646,7977.862678311096,4.35e-10,2.771e-09,-1.49e-09,-962.095576891137,-59.213118360847,-232.786684034459,0.003419450431,0.00182612031,-0.014684048235,-0.298970367285,991.626764052702,-0.064454240192,67.8338637559,2.5061e-08,2.3271e-08,67.833863798227,4.8693e-08,67.833863703115,27.899894137132,11.666876759851,3.279327776973,27.503239881113,13.813790926444,-0.027633235969,5.00263410898,2.51554332094,-0.01665157043,5.599516363281,5.922739921085,2.978212786105,-0.019714194129,6.62940330811,0.755398925427,0.164719021777,-0.610932540813,0.170298379045,0.756636189228,0.164988814169,-0.611933183907,0.170577309836,27.331830210921,292.140092992236,1.6370595e-05,211.760658922834,0.996190755882,1.40250454492,357301.92243045516,443.342010498047,0.002448323862,0.762733208679,0.224308065048,1.254694e-06,7.57332e-07,0.012956712154,2.089e-09,3e-12,,,959.929895909144,32048.127546077118,0.000104232724,1.0,1.541288137436,340.320973515511,286.35420111966
5.75,23,1,286.35420111966,78410.1995902299,0,7983.940392261063,-1.984877767962,0.001832187785,0.410250009727,6.041962e-06,14.183667831172,3.73877862316,6456382.785527334,0.680839328411,45924.14686572271,-333.276687179855,0.255120215098,7976.981306977835,4.35e-10,2.771e-09,-1.49e-09,-968.544479218261,-65.185769909248,-244.490252632014,-0.000592204449,-0.006340269533,0.003926661024,-0.342449692351,1001.050925766195,-0.056619370688,67.8338637559,2.5061e-08,2.3271e-08,67.833863798227,4.8693e-08,67.833863703115,29.21230534175,12.238094282478,3.582578733149,28.754078922979,14.442773158574,-0.032571307412,5.003356167465,2.515928928519,-0.019752285772,5.600344763018,5.923594783647,2.978669316274,-0.023385206264,6.630384070658,0.756901351529,0.172026289053,-0.604887074928,0.177817115357,0.758197460445,0.172320864835,-0.605922876396,0.178121607281,27.320242885229,292.235337211353,1.6539455e-05,211.899670161845,1.007122717824,1.402504504701,359002.77922201593,448.031005859375,0.00242334158,0.762700476666,0.224340940488,1.176619e-06,7.57032e-07,0.012956647446,1.745e-09,3e-12,,,969.641629802965,32042.156461949296,0.00010530733,1.0,1.541288137436,341.643148918947,286.35420111966
6.0,24,1,286.35420111966,78341.47186054899,0,7983.149105845165,-1.98426158043,0.001919101121,0.428069925571,6.60805e-06,14.744129391423,4.063801829693,6456299.466355539,0.744619382186,47918.39219246717,-335.62217826981,0.267194065301,7976.090980437548,4.35e-10,2.771e-09,-1.49e-09,-974.91010984529,-71.520011119313,-256.241421763475,0.000993803634,-0.013729736561,-6.4852678e-05,-0.36969991113,1010.556459900733,-0.0719117658,67.8338637559,2.5061e-08,2.3271e-08,67.833863798227,4.8693e-08,67.833863703115,30.530641967844,12.80278136656,3.898786107043,30.004886702043,15.071420684478,-0.03730208832,5.003231116258,2.514590103617,-0.01892312363,5.599628833817,5.923446732488,2.977084248982,-0.022403541084,6.629536464702,0.758292524157,0.17931255148,-0.598750012188,0.185304828848,0.759647515746,0.179632964765,-0.59981991754,0.185635949723,27.308706311314,292.32981653685,1.6709909e-05,212.037622094298,1.018160084779,1.402504464684,360666.60626361397,452.667999267578,0.002398635528,0.762667544308,0.22437402263,1.103243e-06,7.56734e-07,0.012956571631,1.45e-09,3e-12,,,979.440899503681,32036.11966072297,0.000106392075,1.0,1.541288137436,342.953961004814,286.35420111966
6.25,25,1,286.35420111966,78272.77646920031,0,7982.349489332862,-1.983649190181,0.002006541811,0.445888273209,7.20094e-06,15.297262897639,4.400629387583,6456215.560810971,0.811417898511,49912.414937576556,-337.967126830717,0.279338456612,7975.191628607076,4.35e-10,2.771e-09,-1.49e-09,-981.186949327616,-78.178746825538,-268.04096240422,0.001835611659,-0.006295868541,-0.005000143248,-0.376308500631,1020.139968543352,-0.080528914356,67.8338637559,2.5061e-08,2.3271e-08,67.833863798227,4.8693e-08,67.833863703115,31.8550418106,13.359769052901,4.228575214594,31.255746944528,15.69934341021,-0.04203629285,5.003440969938,2.511690902931,-0.018936818123,5.598515100863,5.92369518335,2.973651814933,-0.022419754329,6.628217889228,0.75956878965,0.186570857706,-0.592526945334,0.192765110687,0.760982638659,0.18691813767,-0.593629865367,0.193123920533,27.297235565856,292.423365365146,1.6881966e-05,212.174275426587,1.029302249754,1.402504425189,362296.7019179014,457.256011962891,0.002374203141,0.762634337864,0.224407383265,1.034293e-06,7.5644e-07,0.012956486937,1.199e-09,3e-12,,,989.328082278004,32030.016697117167,0.000107487014,1.0,1.541288137436,344.253478060166,286.35420111966
6.5,26,1,286.35420111966,78204.11334997337,0,7981.541474801278,-1.98304050445,0.002094551788,0.463705033846,7.820791e-06,15.842458308483,4.749289532179,6456131.069029263,0.881252512664,51906.212844728325,-340.311506708849,0.291559160239,7974.283184548175,4.35e-10,2.771e-09,-1.49e-09,-987.387464371849,-85.153714871152,-279.855448270605,-0.000642454165,-0.003694231109,0.003129674632,-0.38893162132,1029.80778518761,-0.078619027834,67.8338637559,2.5061e-08,2.3271e-08,67.833863798227,4.8693e-08,67.833863703115,33.185691150451,13.908519614943,4.571495506986,32.506704089931,16.32693377367,-0.047034457654,5.003828581614,2.510361453838,-0.019992659213,5.598268911861,5.924154086219,2.97207784789,-0.023669790217,6.627926420092,0.760728231819,0.193802472839,-0.586220964297,0.200195254321,0.762200875473,0.194177642275,-0.587355790831,0.200582799121,27.285845623356,292.515818823266,1.7055634e-05,212.309391533848,1.040548557904,1.402504386524,363889.6998974107,461.798004150391,0.002350041854,0.762600787026,0.224441090831,9.69505e-07,7.56148e-07,0.012956395501,9.86e-10,3e-12,,,999.303552097689,32023.847134672073,0.000108592204,1.0,1.541288137436,345.541636000077,286.35420111966
6.75,27,1,286.35420111966,78135.48244041778,0,7980.724988800112,-1.98243559782,0.002183197152,0.481520188535,8.467772e-06,16.379892038481,5.109843749166,6456045.991152586,0.954142302724,53899.78364086537,-342.655314705415,0.303865307781,7973.365574826513,4.35e-10,2.771e-09,-1.49e-09,-993.495905677387,-92.482607508652,-291.690833983193,0.000814212182,0.005968199209,-0.004736209809,-0.382368672199,1039.553046419712,-0.085981600524,67.8338637559,2.5061e-08,2.3271e-08,67.833863798227,4.8693e-08,67.833863703115,34.522810304964,14.449198291019,4.927477498326,33.757627319823,16.954329116698,-0.051867405262,5.003692919569,2.509581372112,-0.019331790435,5.597795567428,5.923993472631,2.971154290204,-0.022887371635,6.62736601613,0.761773151119,0.20100732279,-0.579829932728,0.20759328393,0.763304522633,0.201411402256,-0.580995548818,0.208010602972,27.274551329447,292.60701275712,1.7230922e-05,212.442732455357,1.051898305377,1.402504348983,365443.9742140996,466.295013427734,0.002326149106,0.762566824815,0.224475210515,9.08627e-07,7.55859e-07,0.012956299375,8.06e-10,3e-12,,,1009.367677355565,32017.610478548413,0.0001097077,1.0,1.541288137436,346.820648481448,286.35420111966
7.0,28,1,286.35420111966,78066.8836760701,0,7979.899963868837,-1.981834387236,0.002272419838,0.499333718164,9.142076e-06,16.909492072859,5.481644166166,6455960.32732391,1.030108629669,55893.125034572,-344.998525829931,0.316248743494,7972.43873294212,4.35e-10,2.771e-09,-1.49e-09,-999.521877663072,-100.129920789256,-303.524075066225,-0.000308919912,0.007409725197,-0.001579239645,-0.389381975615,1049.379192649959,-0.086742030114,67.8338637559,2.5061e-08,2.3271e-08,67.833863798227,4.8693e-08,67.833863703115,35.866551655748,14.98136508333,5.296908303117,35.008593532406,17.582039524197,-0.056950379955,5.003864850329,2.510841629998,-0.020331898772,5.59851788578,5.924197025631,2.972646340097,-0.024071424164,6.628221186355,0.762703608319,0.208181071603,-0.573354887054,0.214960509804,0.764293610822,0.208615065124,-0.574550155695,0.215408636369,27.263367442013,292.696783727883,1.7407838e-05,212.574060902955,1.063350739262,1.402504312846,366959.0281563165,470.75,0.002302522338,0.762532387475,0.22450980436,8.5141e-07,7.55572e-07,0.012956200525,6.54e-10,3e-12,,,1019.520824568758,32011.30626783785,0.000110833559,1.0,1.541288137436,348.090853949388,286.35420111966
7.25,29,1,286.35420111966,77998.31699589209,0,7979.066329546892,-1.981236995306,0.002362261339,0.517145603472,9.843873e-06,17.431568381064,5.864912193677,6455874.077692453,1.109170815542,57886.23471780753,-347.341143479,0.328715170126,7971.502588176331,4.35e-10,2.771e-09,-1.49e-09,-1005.446934140147,-108.119683174975,-315.368115526728,-0.001337138557,0.019582894832,-0.002614930004,-0.388645182289,1059.278194571772,-0.083739154751,67.8338637559,2.5061e-08,2.3271e-08,67.833863798227,4.8693e-08,67.833863703115,37.217150668863,15.5053498011,5.679688490193,36.259543436929,18.210141095102,-0.062116723577,5.003799618095,2.512406283617,-0.020665374485,5.599162706129,5.924119795607,2.974498771488,-0.024466234151,6.628984604817,0.763522672658,0.215324309806,-0.566792533816,0.222294384895,0.765171214572,0.215789222195,-0.568016310505,0.222774346556,27.252308603754,292.784968993338,1.7586392e-05,212.703140248621,1.074905055697,1.402504278381,368692.7251555125,475.165008544922,0.002279158993,0.762497414374,0.224544931356,7.97618e-07,7.55289e-07,0.012956100835,5.26e-10,3e-12,,,1029.76335530238,32004.93400434398,0.000111969835,1.0,1.541288137436,349.350641826789,286.35420111966
7.5,30,1,286.35420111966,77929.78233513056,0,7978.224022384259,-1.98064341126,0.002452745353,0.534955825037,1.0573351e-05,17.945997718252,6.259275546903,6455787.242406583,1.191349608074,59879.110364851615,-349.683152687013,0.341267811169,7970.557077620887,4.35e-10,2.771e-09,-1.49e-09,-1011.289720533153,-116.442857919498,-327.177754780554,-0.001161353264,0.006721345951,0.000946450235,-0.419613352904,1069.25718904489,-0.09402224242,67.8338637559,2.5061e-08,2.3271e-08,67.833863798227,4.8693e-08,67.833863703115,38.574762623246,16.020784928949,6.075957841876,37.510422753178,18.839276457595,-0.067421110779,5.003517264995,2.516541449974,-0.021217548808,5.60076923957,5.923785510921,2.979394495287,-0.025119966728,6.630886618747,0.764230379189,0.22243457743,-0.560143747172,0.229594792607,0.765937342601,0.222931401026,-0.561394868442,0.230107609058,27.24138455551,292.871458355103,1.7766594e-05,212.829808923209,1.086560960104,1.40250424573,370634.2587930488,479.540008544922,0.002256056141,0.762461883176,0.224580612807,7.47032e-07,7.55008e-07,0.012956001558,4.16e-10,3e-12,,,1040.095797723963,31998.493153146366,0.000113116603,1.0,1.541288137436,350.604059189558,286.35420111966
7.75,31,1,286.35420111966,77861.27962990798,0,7977.37297270787,-1.980053872009,0.002543788618,0.552764363299,1.1330701e-05,18.453236033635,6.664577059263,6455699.821618412,1.276666560866,61871.749634256834,-352.024572570334,0.3538950035,7969.602130643349,4.35e-10,2.771e-09,-1.49e-09,-1017.051018194009,-125.121249368182,-338.999762853818,0.000562233975,0.002155376647,-0.00267358642,-0.440017633561,1079.337173787818,-0.107387519633,67.8338637559,2.5061e-08,2.3271e-08,67.833863798227,4.8693e-08,67.833863703115,39.939595941225,16.527866425367,6.486039846569,38.761240760952,19.468766643582,-0.072675534379,5.003272031097,2.517960743948,-0.021017694402,5.601187290986,5.923495172559,2.981074831867,-0.024883354245,6.631381559964,0.764829934222,0.229509403228,-0.553405220683,0.236861282756,0.766595203334,0.230039123421,-0.554682510049,0.237407971486,27.230587061674,292.956334530724,1.7948467e-05,212.954182056297,1.098320214349,1.402504214613,372540.7933461971,483.877990722656,0.002233209514,0.762425902663,0.224616740939,6.99481e-07,7.5473e-07,0.01295590186,3.24e-10,3e-12,,,1050.519297447395,31991.98283361702,0.000114274002,1.0,1.541288137436,351.85008807977,286.35420111966
8.0,32,1,286.35420111966,77792.80880865158,0,7976.513092513771,-1.979468349805,0.002635371877,0.570571198534,1.2116091e-05,18.952411595484,7.080444843484,6455611.815475269,1.365140311741,63864.15016691767,-354.365384500773,0.36659399303,7968.637659909004,4.35e-10,2.771e-09,-1.49e-09,-1022.71528148637,-134.146826689482,-350.808378271388,0.00212889805,0.00289566828,-0.007520552955,-0.452373424639,1089.499067342408,-0.11823836881,67.8338637559,2.5061e-08,2.3271e-08,67.833863798227,4.8693e-08,67.833863703115,41.311726927427,17.025604435233,6.909584736177,40.012088449351,20.098370613083,-0.078071098064,5.003390753596,2.518415878004,-0.021582254738,5.601500099212,5.923635731006,2.98161367612,-0.025551750926,6.631751901214,0.765317507119,0.23654821372,-0.546582813294,0.244092777638,0.767140908714,0.237111799926,-0.547885070154,0.24467433909,27.219903740611,293.039724479746,1.8132035e-05,213.076438580649,1.11018508637,1.402504184667,374411.47957603855,488.209014892578,0.002210614675,0.762389607259,0.224653182747,6.54809e-07,7.54455e-07,0.012955800479,2.47e-10,3e-12,,,1061.03513450106,31985.401971242496,0.000115442189,1.0,1.541288137436,353.088677455982,286.35420111966
8.25,33,1,286.35420111966,77724.36980146871,0,7975.644310456422,-1.978886833022,0.00272751099,0.588376310826,1.292968e-05,19.443097560041,7.506880131088,6455523.224129144,1.456788809999,65856.30958189492,-356.705572706201,0.379366911487,7967.663594642845,4.35e-10,2.771e-09,-1.49e-09,-1028.29266663745,-143.506644572241,-362.583829634554,-0.001390577102,-0.000115134285,0.003706115185,-0.476705328029,1099.748497598846,-0.116577488712,67.8338637559,2.5061e-08,2.3271e-08,67.833863798227,4.8693e-08,67.833863703115,42.691277568265,17.513607616931,7.346191506153,41.263048523416,20.728127446492,-0.083863675808,5.003840296257,2.519027333637,-0.023170310976,5.602182903242,5.924167955472,2.982337593282,-0.027431889241,6.632560289473,0.765692087018,0.243551974302,-0.539678571205,0.251286894751,0.767573418238,0.244150389698,-0.541004579612,0.251904315107,27.209322360443,293.121754551718,1.8317323e-05,213.196756925433,1.122157871975,1.402504155544,376245.6889443719,492.540985107422,0.002188267359,0.762353126088,0.224689810469,6.12866e-07,7.54183e-07,0.012955696207,1.84e-10,3e-12,,,1071.644585834414,31978.749647353452,0.000116621317,1.0,1.541288137436,354.321603467067,286.35420111966
8.5,34,1,286.35420111966,77655.96253943714,0,7974.766550280515,-1.97830943595,0.002820284562,0.606179680099,1.3771635e-05,19.925150099153,7.94393778465,6455434.047735968,1.55163053787,67848.22548055563,-359.045138594709,0.392224616982,7966.679858390465,4.35e-10,2.771e-09,-1.49e-09,-1033.773827229358,-153.240501433989,-374.323609160339,-0.001773461327,0.000598454692,0.004476615019,-0.485584162845,1110.085082716844,-0.121887468938,67.8338637559,2.5061e-08,2.3271e-08,67.833863798227,4.8693e-08,67.833863703115,44.078383553817,17.991753860365,7.795592782664,42.513935188156,21.35787820192,-0.08946060575,5.00354665896,2.519003021711,-0.022387719769,5.601906514908,5.92382031115,2.982308809802,-0.026505360521,6.632233066619,0.765954191405,0.25052129783,-0.532692529689,0.258441337283,0.767893232991,0.251155501834,-0.534041060684,0.259095591162,27.198830763013,293.202550498056,1.8504355e-05,213.315315020052,1.134240895573,1.402504126909,378042.8413446192,496.842010498047,0.00216616346,0.762316583117,0.224726501438,5.73505e-07,7.53913e-07,0.012955587891,1.33e-10,3e-12,,,1082.348919767068,31972.02492663505,0.000117811542,1.0,1.541288137436,355.552400678396,286.35420111966
8.75,35,1,286.35420111966,77587.58695026471,0,7973.879736063323,-1.97773610118,0.002913648941,0.623981286102,1.4642145e-05,20.398230902607,8.39078126952,6455344.286451319,1.649686692116,69839.89544515325,-361.384059594795,0.405160956608,7965.686376108254,4.35e-10,2.771e-09,-1.49e-09,-1039.155368925415,-163.339726572787,-386.015670891004,0.001706508588,0.008074881547,-0.008307048301,-0.476032862741,1120.505065069538,-0.133278074679,67.8338637559,2.5061e-08,2.3271e-08,67.833863798227,4.8693e-08,67.833863703115,45.473048018476,18.459196773312,8.258007916184,43.764728230906,21.987660550113,-0.094821212789,5.003172171004,2.51912939277,-0.021442428156,5.601625161322,5.923376945772,2.982458423567,-0.025386206842,6.631899965282,0.766102141876,0.257451491451,-0.525628477593,0.265557792777,0.768098625522,0.258122417251,-0.526998280133,0.266249843826,27.188416879175,293.282237487356,1.8693156e-05,213.432290303995,1.146436511587,1.402504098443,379802.35939208884,501.113006591797,0.002144299026,0.762280097299,0.224763137944,5.36586e-07,7.53647e-07,0.012955474429,9.3e-11,3e-12,,,1093.149398032082,31965.226898299486,0.000119013019,1.0,1.541288137436,356.775142242511,286.35420111966
9.0,36,1,286.35420111966,77519.24296426728,0,7972.983795159825,-1.97716675293,0.003007566044,0.641781108419,1.5541385e-05,20.862211512581,8.847144540689,6455253.940436421,1.750976931268,71831.31703918031,-363.722310620102,0.418170554093,7964.683076166418,4.35e-10,2.771e-09,-1.49e-09,-1044.462676461497,-173.774178576533,-397.632849652273,0.002463052561,0.00136539697,-0.007320402147,-0.489585400636,1131.02226785981,-0.143857695976,67.8338637559,2.5061e-08,2.3271e-08,67.833863798227,4.8693e-08,67.833863703115,46.875334526779,18.915601878563,8.73334983544,45.015611361155,22.617869175673,-0.1006203534,5.003532520996,2.520834502239,-0.023196562447,5.602720977958,5.923803572872,2.984477144045,-0.027462968993,6.63319732919,0.766136069498,0.264341142316,-0.518487392722,0.272635483899,0.768189701633,0.265049710266,-0.519877201157,0.27336628488,27.178068737532,293.360940107912,1.8883749e-05,213.547859718805,1.158747104071,1.402504069838,381533.8833162844,505.35400390625,0.002122670249,0.762243782716,0.224799607094,5.01971e-07,7.53382e-07,0.012955354771,6.2e-11,3e-12,,,1104.047275618133,31958.35469891795,0.000120225899,1.0,1.541288137436,357.993238459031,286.35420111966
9.25,37,1,286.35420111966,77450.93051497154,0,7972.07864286187,-1.976601576338,0.003102041039,0.659579126469,1.6469521e-05,21.317327212397,9.313502808101,6455163.009858766,1.855519569791,73822.48780822192,-366.059902192028,0.431254048241,7963.669873243206,4.35e-10,2.771e-09,-1.49e-09,-1049.657860523607,-184.573221761541,-409.198108962116,0.001331629666,0.01321102365,-0.009704491253,-0.488623832901,1141.618032394179,-0.141731425408,67.8338637559,2.5061e-08,2.3271e-08,67.833863798227,4.8693e-08,67.833863703115,48.285420598779,19.361398935202,9.221286368063,46.266624517267,23.248149881294,-0.106805942003,5.004052624445,2.521122822485,-0.024742354408,5.603321795004,5.924419335966,2.984818493379,-0.029293069606,6.633908651068,0.76605892666,0.27119257621,-0.511265742112,0.27967060703,0.768169424425,0.271939713677,-0.51267428285,0.280441101532,27.167774410409,293.438782376207,1.9076159e-05,213.662199709702,1.171175087262,1.402504040801,383231.8237337496,509.587005615234,0.002101273459,0.762207748712,0.22483580068,4.69529e-07,7.53121e-07,0.012955227915,4e-11,3e-12,,,1115.043796380861,31951.40738968197,0.000121450337,1.0,1.541288137436,359.210119456053,286.35420111966
9.5,38,1,286.35420111966,77382.64953015227,0,7971.164210751474,-1.976040520884,0.003197153792,0.677375319481,1.7426716e-05,21.763044550076,9.789600457092,6455071.494883218,1.963333081852,75813.40527653272,-368.396812692798,0.444422463194,7962.646699788432,4.35e-10,2.771e-09,-1.49e-09,-1054.786477014717,-195.73485290099,-420.651373500468,0.00364800859,-0.003765140038,-0.007623051456,-0.517693953387,1152.316765720354,-0.16184521097,67.8338637559,2.5061e-08,2.3271e-08,67.833863798227,4.8693e-08,67.833863703115,49.70330832961,19.795993793151,9.721435520096,47.517707970815,23.879128003991,-0.113503835944,5.004333814195,2.523912490791,-0.026791575766,5.604837997088,5.924752243336,2.988121249384,-0.031719192495,6.635703719509,0.76586891315,0.278005614495,-0.503966948805,0.28666182287,0.768035953681,0.278792236623,-0.505392932789,0.287472937903,27.157522107937,293.515887755529,1.9270409e-05,213.775486242952,1.18372290792,1.402504011052,384890.668973093,513.818969726562,0.002080105119,0.762172100017,0.224871615053,4.39133e-07,7.52862e-07,0.012955092908,2.4e-11,3e-12,,,1126.140202327506,31944.384181662874,0.000122686486,1.0,1.541288137436,360.421773046255,286.35420111966
9.75,39,1,286.35420111966,77314.39993987902,0,7970.240409108747,-1.97548381593,0.00329276474,0.695169666532,1.8413162e-05,22.199836228024,10.275311041879,6454979.395680045,2.07443869765,77804.06695147984,-370.73305830562,0.457656309647,7961.61346518531,4.35e-10,2.771e-09,-1.49e-09,-1059.810236868729,-207.257456032772,-432.046729202284,-0.000257590527,-0.00052432851,0.00049562233,-0.536594567896,1163.106811192651,-0.159030980982,67.8338637559,2.5061e-08,2.3271e-08,67.833863798227,4.8693e-08,67.833863703115,51.129103291761,20.219570165161,10.234057435267,48.768984004694,24.509907362937,-0.120604154896,5.005104135513,2.523117435784,-0.028401275807,5.6051757898,5.925664245436,2.987179964466,-0.033624955435,6.636103640494,0.765569251316,0.284777802729,-0.496587732771,0.293608494723,0.767792514506,0.285604816099,-0.498029856034,0.294461153,27.147300049346,293.592379154503,1.9466525e-05,213.887894794603,1.196393044612,1.402503980324,386509.734261109,518.023010253906,0.002059161815,0.762136936879,0.224906950997,4.10658e-07,7.52606e-07,0.012954948843,1.4e-11,3e-12,,,1137.337721785749,31937.284135918107,0.000123934498,1.0,1.541288137436,361.628093729417,286.35420111966
10.0,40,1,286.35420111966,77246.18166697759,0,7969.307158392379,-1.974931438961,0.003389017958,0.712962146495,1.9429005e-05,22.626614545825,10.770352687821,6454886.712415468,2.188852775062,79794.47031777617,-373.068620542584,0.470975534993,7960.570090599824,4.35e-10,2.771e-09,-1.49e-09,-1064.746190241011,-219.159608809712,-443.341974127416,-0.002602990613,0.005749310424,0.003090166794,-0.545494745276,1173.996238252116,-0.157464066002,67.8338637559,2.5061e-08,2.3271e-08,67.833863798227,4.8693e-08,67.833863703115,52.56270628744,20.631161671874,10.758319850868,50.02024644022,25.140659042318,-0.127678309694,5.005049742103,2.523006717523,-0.028296619192,5.605076851949,5.925599847758,2.987048882431,-0.033501049929,6.635986505571,0.765155499055,0.291510683587,-0.489135080455,0.300508663251,0.767434603032,0.292378981808,-0.490592025754,0.301403762992,27.137096567977,293.668378945023,1.9664529e-05,213.99960036856,1.209188010243,1.40250394836,388088.6607121879,522.200012207031,0.002038440249,0.76210235518,0.224941713612,3.83986e-07,7.52353e-07,0.012954794856,9e-12,3e-12,,,1148.637579751177,31930.10641366728,0.000125194525,1.0,1.541288137436,362.832225273053,286.35420111966
10.25,41,1,286.35420111966,77177.99463570029,0,7968.364372015207,-1.97438336887,0.003485905718,0.730752738064,2.0474436e-05,23.043393722354,11.274017439453,6454793.445260332,2.30659665881,81784.61284042613,-375.403480660433,0.484378976169,7959.516490169885,4.35e-10,2.771e-09,-1.49e-09,-1069.597809333797,-231.433902818067,-454.518127264469,-0.000786596176,0.004784441168,-0.000891457543,-0.551425384037,1184.984186004736,-0.167230373532,67.8338637559,2.5061e-08,2.3271e-08,67.833863798227,4.8693e-08,67.833863703115,54.004030162032,21.030234514402,11.294430470046,51.271371462458,25.771714230913,-0.134589332938,5.004500088954,2.524220754381,-0.027644092975,5.60512941448,5.924949100058,2.988486210128,-0.032728508306,6.63604873563,0.764627894625,0.298199605018,-0.481610564076,0.307363698081,0.76696242384,0.29911005531,-0.483080996871,0.30830212779,27.126900052361,293.744008959167,1.9864447e-05,214.110777484601,1.222110351253,1.402503914917,389880.7060331999,526.385009765625,0.002017937238,0.762068446564,0.224975812191,3.59002e-07,7.52102e-07,0.012954630132,7e-12,3e-12,,,1160.040991560791,31922.850138621045,0.000126466719,1.0,1.541288137436,364.035162697236,286.35420111966
10.5,42,1,286.35420111966,77109.83877172743,0,7967.411964142188,-1.973839629059,0.003583356928,0.748541419743,2.1549643e-05,23.450363134654,11.785899862607,6454699.594390167,2.427691402852,83774.49196296859,-377.737626004825,0.49785666339,7958.452578510161,4.35e-10,2.771e-09,-1.49e-09,-1074.35753874828,-244.064428452563,-465.575205925263,-1.332134e-06,0.001367639187,-0.001045978734,-0.559452867073,1196.065004340507,-0.176289311325,67.8338637559,2.5061e-08,2.3271e-08,67.833863798227,4.8693e-08,67.833863703115,55.453036399247,21.41655917928,11.842521834031,52.522454959851,26.403021992755,-0.141547416722,5.004333989571,2.525231047367,-0.027832335136,5.60543710701,5.924752450967,2.989682320512,-0.032951372768,6.636413020284,0.763987886347,0.304841303499,-0.474013804119,0.314173841529,0.766377407413,0.305794754109,-0.475496374708,0.315156481472,27.116698971799,293.81939049544,2.0066301e-05,214.22160018091,1.235162648404,1.402503879762,391883.50208180025,530.577026367188,0.001997649707,0.762035298547,0.225009160104,3.35594e-07,7.51854e-07,0.012954453892,7e-12,3e-12,,,1171.549165043338,31915.514458572183,0.000127751231,1.0,1.541288137436,365.235523174206,286.35420111966
10.75,43,1,286.35420111966,77041.71400062638,0,7966.449853873045,-1.973300275117,0.003681376121,0.76632816984,2.2654793e-05,23.847319743464,12.305999552567,6454605.159983667,2.552155568699,85764.10510759613,-380.07104849582,0.511409139217,7957.378274961537,4.35e-10,2.771e-09,-1.49e-09,-1079.023607130956,-257.055975275648,-476.512550800492,-0.001871484544,0.005896492878,0.000713769933,-0.563659124183,1207.242138770471,-0.175802438008,67.8338637559,2.5061e-08,2.3271e-08,67.833863798227,4.8693e-08,67.833863703115,56.909693631548,21.789959701657,12.402169101915,53.77353838691,27.034401953026,-0.148560718303,5.004333708235,2.525519841083,-0.028053206325,5.605568063405,5.924752117887,2.990024230401,-0.033212867528,6.636568062738,0.763235675531,0.31143643622,-0.466345479284,0.320936977836,0.765679735759,0.312433728972,-0.467838827243,0.321964693558,27.106481889587,293.894644326141,2.0270115e-05,214.332242019059,1.248347517884,1.402503842674,393847.49905902223,534.744995117188,0.00197757468,0.762002994631,0.225041674691,3.13656e-07,7.51608e-07,0.012954265404,8e-12,2e-12,,,1183.163302001219,31908.098578196626,0.000129048211,1.0,1.541288137436,366.431406587362,286.35420111966
11.0,44,1,286.35420111966,76973.6202466817,0,7965.47795730068,-1.972765325848,0.003780023367,0.784112966484,2.3790053e-05,24.233923096842,12.834106218775,6454510.142221542,2.680007853504,87753.44967633652,-382.403734674068,0.525044661303,7956.29349611227,4.35e-10,2.771e-09,-1.49e-09,-1083.597699021899,-270.428165107566,-487.298359566799,0.003018098709,0.006364391515,-0.010533747491,-0.558118151466,1218.51331928041,-0.190488473366,67.8338637559,2.5061e-08,2.3271e-08,67.833863798227,4.8693e-08,67.833863703115,58.373894456638,22.150038053051,12.972936586645,55.024523017281,27.666093192353,-0.155536339601,5.003938521485,2.526764957306,-0.027902485192,5.605775630985,5.924284246704,2.991498353712,-0.03303442512,6.636813807035,0.762370557291,0.317984824048,-0.458607800395,0.327651751816,0.764868673001,0.319026788323,-0.460110554325,0.328725392424,27.096237592572,293.969888996117,2.0475914e-05,214.442873665064,1.261667593231,1.402503803453,395771.98012251675,538.888000488281,0.001957709288,0.761971611958,0.225073279564,2.93082e-07,7.51365e-07,0.01295406402,9e-12,2e-12,,,1194.88459182322,31900.601703815777,0.00013035781,1.0,1.541288137436,367.62557297945,286.35420111966
11.25,45,1,286.35420111966,76905.557434208,0,7964.496192499521,-1.972234763202,0.003879203418,0.801895787615,2.495561e-05,24.610271579033,13.369859784266,6454414.541287874,2.811269018829,89742.52305036459,-384.735665930949,0.538749904567,7955.198160790753,4.35e-10,2.771e-09,-1.49e-09,-1088.094303418066,-284.150454987562,-497.935782866435,0.003952814154,0.004574695288,-0.011593073873,-0.566242076102,1229.890392392134,-0.200326547053,67.8338637559,2.5061e-08,2.3271e-08,67.833863798227,4.8693e-08,67.833863703115,59.845531498649,22.496542223582,13.554803110422,56.275666974699,28.298120411356,-0.163068043122,5.004575829674,2.528108876014,-0.030126814084,5.606961864402,5.925038771334,2.993089451683,-0.035667862069,6.638218217562,0.761393638825,0.324483787198,-0.450800878773,0.334318061584,0.763945306358,0.325571233562,-0.452311653105,0.335438465669,27.085961534941,294.045171046455,2.0683718e-05,214.55356380884,1.275124736061,1.402503762328,397656.24925393256,543.007019042969,0.001938051075,0.761941121999,0.225104001977,2.73787e-07,7.51124e-07,0.0129538511,9e-12,2e-12,,,1206.714038644297,31893.023422296657,0.000131680158,1.0,1.541288137436,368.81673336029,286.35420111966
11.5,46,1,286.35420111966,76837.52548880527,0,7963.504467205054,-1.971708716558,0.003978946822,0.819676610991,2.6151619e-05,24.97623700506,13.913671062224,6454318.357371391,2.945956494971,91731.32259056228,-387.066843499708,0.552529022642,7954.092176519561,4.35e-10,2.771e-09,-1.49e-09,-1092.497360022459,-298.242862703926,-508.408886692667,0.004405811814,0.000449362331,-0.010131828548,-0.579387048373,1241.361552049413,-0.210433059074,67.8338637559,2.5061e-08,2.3271e-08,67.833863798227,4.8693e-08,67.833863703115,61.324622185053,22.829697660422,14.147167862645,57.527019603297,28.930389131008,-0.171211751276,5.005410514391,2.52907487861,-0.032574832617,5.608156138956,5.926026974826,2.994233125597,-0.038566130613,6.639632148185,0.760306139244,0.330936309537,-0.442923293939,0.340932089049,0.762910853904,0.332070056343,-0.444440694283,0.342100080158,27.075657988309,294.120440974823,2.0893543e-05,214.664244748639,1.288719729346,1.402503720082,399499.56239152263,547.101989746094,0.001918598066,0.761911361535,0.225134001288,2.55702e-07,7.50886e-07,0.012953630577,1e-11,2e-12,,,1218.652397111533,31885.36369616993,0.000133015359,1.0,1.541288137436,370.004228164752,286.35420111966
11.75,47,1,286.35420111966,76769.52433233323,0,7962.502699463751,-1.971187261427,0.004079251984,0.83745541416,2.7378246e-05,25.331557976958,14.465374512766,6454221.590660516,3.084088750632,93719.84563469217,-389.397261490961,0.566381701753,7952.975461481234,4.35e-10,2.771e-09,-1.49e-09,-1096.815820196609,-312.69724730904,-518.721880487246,-0.002154142255,0.002568076816,0.002623594421,-0.601227630808,1252.939143837644,-0.203885168352,67.8338637559,2.5061e-08,2.3271e-08,67.833863798227,4.8693e-08,67.833863703115,62.811030049996,23.149227125772,14.749611711053,58.778604817065,29.56268157276,-0.179890324136,5.006340855071,2.529169767007,-0.034714291438,5.609042124064,5.927128427732,2.994345466272,-0.041099087826,6.640681087451,0.759107856933,0.337342184683,-0.43497648427,0.347492402949,0.761765088661,0.338523039746,-0.436499104942,0.348708788513,27.065331838947,294.195642855766,2.1105405e-05,214.774839417672,1.302453263934,1.402503677501,401301.05950272933,551.172973632812,0.001899348337,0.76188216446,0.225163439714,2.38763e-07,7.50651e-07,0.0129534064,1e-11,2e-12,,,1230.700402795822,31877.62257275552,0.000134363515,1.0,1.541288137436,371.19101451834,286.35420111966
12.0,48,1,286.35420111966,76701.5538846958,0,7961.490796547668,-1.970670496808,0.004180223693,0.855232174488,2.8635657e-05,25.675839619554,15.024669601298,6454124.241345144,3.22568417607,95708.08950006247,-391.726916615039,0.580322400834,7951.847922938314,4.35e-10,2.771e-09,-1.49e-09,-1101.054854962341,-327.549759073625,-528.842713931073,-0.000388272162,-0.001829383827,0.0016398174,-0.609202370679,1264.628339508344,-0.21486776594,67.8338637559,2.5061e-08,2.3271e-08,67.833863798227,4.8693e-08,67.833863703115,64.30454659701,23.45469527998,15.361638807823,60.030076312492,30.19510958469,-0.188430396048,5.005885981709,2.52971204772,-0.034160287649,5.60887728797,5.926589892121,2.994987485568,-0.040443189297,6.640485934001,0.757797832653,0.343700918407,-0.426963170175,0.353997987038,0.760507016862,0.344929675023,-0.4284895956,0.355263556449,27.054987893697,294.270721089566,2.131932e-05,214.885270961642,1.316326012996,1.402503635341,403077.99838408997,555.221984863281,0.001880299983,0.761853371416,0.225192472887,2.22907e-07,7.50418e-07,0.012953182361,9e-12,2e-12,,,1242.858782285344,31869.799983532277,0.000135724729,1.0,1.541288137436,372.373306592306,286.35420111966
12.25,49,1,286.35420111966,76633.61406311212,0,7960.468661213778,-1.970158380373,0.00428175185,0.873006869132,2.9924048e-05,26.009040834198,15.590558423581,6454026.30961599,3.370764776278,97696.05148079706,-394.055785599225,0.59433573068,7950.709464618077,4.35e-10,2.771e-09,-1.49e-09,-1105.199889799797,-342.762548299344,-538.778944851732,-0.000791974885,0.003702688802,-0.001196957762,-0.60652180891,1276.415017956607,-0.215434023225,67.8338637559,2.5061e-08,2.3271e-08,67.833863798227,4.8693e-08,67.833863703115,65.804799341349,23.745287877447,15.983313912795,61.281527310813,30.827441022482,-0.196883901132,5.005803993283,2.529325751166,-0.033814020336,5.608627796765,5.926492824034,2.994530139703,-0.040033235023,6.64019055531,0.756375664907,0.350006402622,-0.418886848061,0.360451356194,0.75913618932,0.351283811803,-0.420415648396,0.361766886048,27.044630901723,294.345620398411,2.1535305e-05,214.995462738773,1.3303386318,1.402503594325,404817.0307544543,559.27099609375,0.001861451117,0.761824829605,0.225221250036,2.08073e-07,7.50188e-07,0.012952962087,9e-12,2e-12,,,1255.128255116553,31861.89579482508,0.000137099103,1.0,1.541288137436,373.557078858217,286.35420111966
