Time,Iter,Assembly_ID,Mass,Altitude,Distance,Velocity,FlightPathAngle,HeadingAngle,Latitude,Longitude,AngleAttack,AngleSideslip,ECEF_X,ECEF_Y,ECEF_Z,ECEF_vU,ECEF_vV,ECEF_vW,BODY_COM_X,BODY_COM_Y,BODY_COM_Z,Aero_Fx_B,Aero_Fy_B,Aero_Fz_B,Aero_Mx_B,Aero_My_B,Aero_Mz_B,Lift,Drag,Crosswind,Inertia_xx,Inertia_xy,Inertia_xz,Inertia_yy,Inertia_yz,Inertia_zz,Roll,Pitch,Yaw,distRoll,distPitch,distYaw,VelRoll,VelPitch,VelYaw,magnitudeOmega,angularMomentum_x,angularMomentum_y,angularMomentum_z,magnitudeAngularMomentum,Quat_w,Quat_x,Quat_y,Quat_z,Quat_prev_w,Quat_prev_x,Quat_prev_y,Quat_prev_z,Mach,Speedsound,Density,Temperature,Pressure,SpecificHeatRatio,qmax,Tmax,knudsen,N2_mass_pct,O2_mass_pct,O_mass_pct,He_mass_pct,Ar_mass_pct,N_mass_pct,H_mass_pct,Pstag,Tstag,Rhostag,Aref,Lref,Temperature_obj_0,Mass_obj_0
0,0,1,626.115104854686,199999.99999938157,0,7000.0,-16.084564623859,45.000000000011,20.000000000022,-31.999999999971,-0.0,-0.0,5244138.5378358215,-3276901.4494565073,2236100.816493732,-396.295794401582,5858.167059338219,3811.145280388066,2.335531e-06,2.174074e-06,-2.5589e-08,-0.043854214253,5.5464e-08,-8.2402e-08,-2.48e-10,-3.55802e-07,-3.18195e-07,8.2402e-08,0.043854214253,5.5464e-08,249.858084166139,-0.001601997719,0.000973819561,249.857700776263,0.002098036549,249.865168869439,-4e-12,-15.999999999965,45.000000000011,-4e-12,-15.999999999965,45.000000000011,0.0,0.0,0.0,0.0,0.0,0.0,0.0,0.0,0.475122874073,-0.495934886931,-0.714149448627,0.135267910027,0.475122874073,-0.495934886931,-0.714149448627,0.135267910027,9.557603493037,732.401172019736,2.73e-10,899.7,9.4940596e-05,1.544943761422,48.185755031549,300.0,102.836169948463,0.562575107161,0.035327106287,0.400587621616,0.000485887466,0.000964301114,1.5905888e-05,4.4070469e-05,0.012071006527,23292.965473935987,1.343e-09,1.0,1.999442919942,300,626.115104854686
0.3,1,1,626.115104854686,199421.47208897225,0,7000.757826733126,-16.087002747024,45.0058661867,20.012500287777,-31.986772207284,0.020023386311,0.001302694388,5244019.649097501,-3275143.999338706,2237244.1600778485,-398.234932459119,5859.556250063005,3810.199422534468,2.335531e-06,2.174074e-06,-2.5589e-08,-0.044649347867,-9.60567e-07,-1.5706916e-05,-1.21e-10,1.63754e-07,-3.53883e-07,-6.5829572e-05,0.044649302111,5.4593e-08,249.858084166139,-0.001601997719,0.000973819561,249.857700776263,0.002098036549,249.865168869439,5.2742949e-05,-15.982371933626,45.004510997391,-9e-12,-16.000000007309,44.999999993444,-1.7e-11,-2.4477e-08,-2.1889e-08,3.2837e-08,-7.4e-11,-1.06741e-07,-9.5458e-08,1.43199e-07,0.475122874073,-0.495934886931,-0.714149448627,0.135267910027,0.475122874073,-0.495934886931,-0.714149448627,0.135267910027,9.571866568677,731.388990486186,2.78e-10,898.722060978055,9.641446e-05,1.544356261819,49.063887916206,300.0,101.061726086328,0.564445969869,0.035578519232,0.398461047446,0.000479167331,0.0009760628,1.5701544e-05,4.3531779e-05,0.01229136468,23310.272474921054,1.368e-09,1.0,1.999442919942,300,626.115104854686
0.6,2,1,626.115104854686,198842.7971990496,0,7001.515898704561,-16.089438846564,45.011737248414,20.025001587013,-31.973539577276,0.040047994749,0.002605758947,5243900.178617764,-3273386.132463687,2238387.219904609,-400.174542548715,5860.945153425502,3809.252830129126,2.335531e-06,2.174074e-06,-2.5589e-08,-0.04540796489,-2.011309e-06,-3.1863649e-05,1e-12,6.99811e-07,-3.89975e-07,-6.6961986e-05,0.045407926741,5.3802e-08,249.858084166139,-0.001601997719,0.000973819561,249.857700776263,0.002098036549,249.865168869439,0.000105055352,-15.964740647794,45.009026490266,-1.7e-11,-16.000000011272,44.999999979574,-2.5e-11,-1.3211e-08,-4.6234e-08,4.8084e-08,-1.11e-10,-5.7615e-08,-2.01623e-07,2.09694e-07,0.475122874035,-0.495934886881,-0.714149448686,0.135267910031,0.475122874035,-0.495934886881,-0.714149448686,0.135267910031,9.586197209223,730.374698735417,2.83e-10,897.73276083013,9.7918297e-05,1.543770012791,67.413035636051,300.0,99.309551492263,0.566304992529,0.035831606296,0.396344647374,0.000472358049,0.000987903002,1.5502152e-05,4.2990599e-05,0.012516779122,23327.51466140738,1.394e-09,1.0,1.999442919942,300,626.115104854686
0.9,3,1,626.115104854686,198263.97536272192,0,7002.274215948927,-16.091872921847,45.017613188434,20.037503897242,-31.960302105719,0.060073837122,0.003909194024,5243780.126255,-3271627.848917659,2239529.9957536478,-402.114624767465,5862.333769116718,3808.305502892994,2.335531e-06,2.174074e-06,-2.5589e-08,-0.046231065558,-3.034397e-06,-4.8591865e-05,-1.773e-09,6.42257e-07,1.06675e-06,-6.821824e-05,0.046231040863,1.1987e-07,249.858084166139,-0.001601997719,0.000973819561,249.857700776263,0.002098036549,249.865168869439,0.000156937209,-15.9471061301,45.013546481112,-2.4e-11,-16.000000000792,44.999999957656,-2.5e-11,3.4932e-08,-7.3061e-08,8.0982e-08,-1.1e-10,1.52329e-07,-3.18616e-07,3.53157e-07,0.475122874027,-0.49593488679,-0.714149448762,0.135267909991,0.475122874027,-0.49593488679,-0.714149448762,0.135267909991,9.600461758595,729.368481644126,2.89e-10,896.752383364652,9.9455689e-05,1.543186814284,68.497930128551,300.0,97.579203252256,0.568146513416,0.036085759843,0.394244660894,0.000465537181,0.00099976719,1.5310419e-05,4.2451058e-05,0.012747408157,23344.66727080821,1.42e-09,1.0,1.999442919942,300,626.115104854686
1.2,4,1,626.115104854686,197685.00661312582,0,7003.032778452454,-16.094304972239,45.023494010045,20.050007217975,-31.947059788385,0.08010092558,0.005212999974,5243659.491867569,-3269869.1487869243,2240672.4874045155,-404.055179209643,5863.722096786849,3807.357440520525,2.335531e-06,2.174074e-06,-2.5589e-08,-0.047077507354,-4.099866e-06,-6.5874921e-05,-4.355e-09,-6.34089e-07,2.453595e-06,-6.9564434e-05,0.047077502225,1.83437e-07,249.858084166139,-0.001601997719,0.000973819561,249.857700776263,0.002098036549,249.865168869439,0.000208388528,-15.929468367832,45.018070972396,-6.8e-11,-15.999999977058,44.999999957753,-1.47e-10,7.9115e-08,3.22e-10,7.9115e-08,-6.42e-10,3.45006e-07,1.409e-09,3.45009e-07,0.475122874118,-0.495934886666,-0.714149448814,0.135267909855,0.475122874118,-0.495934886666,-0.714149448814,0.135267909855,9.614928536925,728.349956170564,2.94e-10,895.74965140142,0.000101018259,1.542599318193,69.603909110147,300.0,95.875004098493,0.569987932432,0.036350789614,0.392133559899,0.000458864352,0.001011821611,1.5121137e-05,4.1910954e-05,0.012982879173,23361.866700733943,1.448e-09,1.0,1.999442919942,300,626.115104854686
1.5,5,1,626.115104854686,197105.89098343486,0,7003.791586221065,-16.096734997108,45.029379716535,20.062511548724,-31.93381262104,0.100129260025,0.006517146343,5243538.275313807,-3268110.032157888,2241814.694636672,-405.996205970616,5865.110136102253,3806.408642716788,2.335531e-06,2.174074e-06,-2.5589e-08,-0.047941391225,-5.269093e-06,-8.3863713e-05,-5.283e-09,-9.0262e-08,2.465638e-06,-7.0855229e-05,0.047941412505,1.84038e-07,249.858084166139,-0.001601997719,0.000973819561,249.857700776263,0.002098036549,249.865168869439,0.000259400491,-15.911827360528,45.022599998628,-2.02e-10,-15.999999966411,45.000000008486,-4.47e-10,3.5492e-08,1.69111e-07,1.72795e-07,-1.949e-09,1.54779e-07,7.37487e-07,7.53557e-07,0.475122874265,-0.495934886695,-0.714149448715,0.135267909752,0.475122874265,-0.495934886695,-0.714149448715,0.135267909752,9.62970185473,727.311363516466,2.99e-10,894.698647316618,0.000102603026,1.542010072813,70.730615024145,300.0,94.197384505369,0.571824539765,0.036621917507,0.390020792706,0.000452351662,0.001024098981,1.4931564e-05,4.1367814e-05,0.013223163475,23379.022135035226,1.475e-09,1.0,1.999442919942,300,626.115104854686
1.8,6,1,626.115104854686,196526.6285068526,0,7004.550639263503,-16.099162995819,45.035270311194,20.075016888996,-31.920560599445,0.120158815202,0.007821604119,5243416.476452015,-3266350.4991170573,2242956.617229487,-407.93770514582,5866.497886731298,3805.459109188311,2.335531e-06,2.174074e-06,-2.5589e-08,-0.048823535953,-6.48044e-06,-0.000102496483,-6.246e-09,4.72346e-07,2.477485e-06,-7.2173678e-05,0.048823590624,1.84606e-07,249.858084166139,-0.001601997719,0.000973819561,249.857700776263,0.002098036549,249.865168869439,0.000309964716,-15.89418313288,45.027133592809,-4.46e-10,-15.999999957626,45.000000110104,-8.11e-10,2.9281e-08,3.38727e-07,3.39991e-07,-3.533e-09,1.277e-07,1.477179e-06,1.482692e-06,0.475122874271,-0.495934887024,-0.714149448451,0.135267909915,0.475122874271,-0.495934887024,-0.714149448451,0.135267909915,9.644684875986,726.260186758814,3.05e-10,893.593800459805,0.000104213336,1.541428314296,71.879128259336,300.0,92.543897911906,0.573637068954,0.036884460568,0.387940499475,0.000445896493,0.001036511943,1.474223e-05,4.0820337e-05,0.01346855144,23395.90879835898,1.503e-09,1.0,1.999442919942,300,626.115104854686
2.1,7,1,626.115104854686,195947.21921662026,0,7005.309937588097,-16.101588967739,45.041165797318,20.0875232383,-31.907303719361,0.140189603425,0.009126372662,5243294.095140472,-3264590.5497510377,2244098.254962243,-409.879676830626,5867.885348341725,3804.508839641234,2.335531e-06,2.174074e-06,-2.5589e-08,-0.049723922265,-7.735152e-06,-0.000121792425,-7.246e-09,1.054313e-06,2.489202e-06,-7.3519776e-05,0.049724017672,1.85154e-07,249.858084166139,-0.001601997719,0.000973819561,249.857700776263,0.002098036549,249.865168869439,0.000360080961,-15.876535672013,45.031671758434,-8.18e-10,-15.999999939094,45.000000262851,-1.242e-09,6.1774e-08,5.09158e-07,5.12893e-07,-5.407e-09,2.69404e-07,2.220424e-06,2.236715e-06,0.475122874205,-0.495934887669,-0.714149447976,0.135267910297,0.475122874205,-0.495934887669,-0.714149447976,0.135267910297,9.659613255597,725.216398651293,3.1e-10,892.503977909293,0.000105855026,1.540846277039,73.049919214333,300.0,90.915590078575,0.575447200212,0.037145022613,0.385864400841,0.000439493609,0.001049053237,1.4557032e-05,4.0272456e-05,0.013719061157,23412.768475630633,1.532e-09,1.0,1.999442919942,300,626.115104854686
2.4,8,1,626.115104854686,195367.663146005,0,7006.069481203189,-16.104012912234,45.047066178204,20.100030596141,-31.894041976542,0.160221637394,0.010431451339,5243171.131237423,-3262830.184146535,2245239.6076141354,-411.822121120351,5869.272520600957,3803.55783378157,2.335531e-06,2.174074e-06,-2.5589e-08,-0.050643555943,-9.034663e-06,-0.000141773587,-8.284e-09,1.656282e-06,2.50086e-06,-7.4895025e-05,0.050643699811,1.85693e-07,249.858084166139,-0.001601997719,0.000973819561,249.857700776263,0.002098036549,249.865168869439,0.000409748986,-15.858884964665,45.036214499001,-1.34e-09,-15.999999898803,45.00000046697,-1.74e-09,1.34303e-07,6.80395e-07,6.93525e-07,-7.581e-09,5.85698e-07,2.967185e-06,3.024448e-06,0.475122874139,-0.495934888644,-0.714149447238,0.135267910848,0.475122874139,-0.495934888644,-0.714149447238,0.135267910848,9.674364529361,724.189114431259,3.16e-10,891.474816725706,0.000107533432,1.540254847294,74.244725353627,300.0,89.311664449818,0.577278072488,0.037413432569,0.383759487995,0.000433158506,0.001061742928,1.4378912e-05,3.9726603e-05,0.013974999384,23429.852430236384,1.562e-09,1.0,1.999442919942,300,626.115104854686
2.7,9,1,626.115104854686,194787.96032831233,0,7006.829270116617,-16.10643482867,45.052971457155,20.112538962023,-31.88077536674,0.18025493021,0.011736839515,5243047.584601087,-3261069.402390355,2246380.6749642696,-413.765038110224,5870.659403175689,3802.606091314937,2.335531e-06,2.174074e-06,-2.5589e-08,-0.051589436086,-1.0412966e-05,-0.000162429977,-6.793e-09,1.065799e-06,1.789569e-06,-7.6362124e-05,0.051589636328,1.54995e-07,249.858084166139,-0.001601997719,0.000973819561,249.857700776263,0.002098036549,249.865168869439,0.000458968549,-15.841230997173,45.040761818004,-2.033e-09,-15.99999982433,45.0000007227,-2.31e-09,2.48244e-07,8.52433e-07,8.87847e-07,-1.0066e-08,1.082582e-06,3.717443e-06,3.871882e-06,0.475122874147,-0.495934889966,-0.714149446188,0.135267911517,0.475122874147,-0.495934889966,-0.714149446188,0.135267911517,9.689488291954,723.137183202412,3.22e-10,890.386901734946,0.000109247457,1.539661253714,75.469836930826,300.0,87.722662042341,0.579109222768,0.03768382965,0.381652139987,0.00042685051,0.001074577368,1.4204486e-05,3.9175232e-05,0.014237894595,23446.88568686152,1.592e-09,1.0,1.999442919942,300,626.115104854686
3.0,10,1,626.115104854686,194208.1107968768,0,7007.589304332856,-16.108854716414,45.058881637477,20.125048335448,-31.867503885702,0.200289495389,0.013042536559,5242923.455089654,-3259308.204569402,2247521.456791664,-415.708427895249,5872.045995729478,3801.653611945002,2.335531e-06,2.174074e-06,-2.5589e-08,-0.052559900691,-1.1809137e-05,-0.000183887883,-7.571e-09,1.683503e-06,1.785406e-06,-7.7814178e-05,0.052560166094,1.55412e-07,249.858084166139,-0.001601997719,0.000973819561,249.857700776263,0.002098036549,249.865168869439,0.000507739411,-15.82357375546,45.045313718942,-2.867e-09,-15.999999727861,45.000001015362,-2.777e-09,3.21563e-07,9.7554e-07,1.027176e-06,-1.2104e-08,1.402322e-06,4.254314e-06,4.479491e-06,0.475122874306,-0.495934891651,-0.714149444773,0.13526791225,0.475122874306,-0.495934891651,-0.714149444773,0.13526791225,9.705086597493,722.05324846286,3.28e-10,889.21361264856,0.000110996221,1.539068827483,76.726386649207,300.0,86.147964736186,0.580932297542,0.037952530534,0.379554429857,0.000420558877,0.001087535393,1.4030845e-05,3.8616952e-05,0.014508055387,23463.76639874952,1.623e-09,1.0,1.999442919942,300,626.115104854686
3.3,11,1,626.115104854686,193628.11458506886,0,7008.349583857163,-16.111272574831,45.064796722477,20.137558715918,-31.854227529173,0.220325321835,0.01434855676,5242798.742561285,-3257546.5907706833,2248661.9528752477,-417.65229057036,5873.432297926224,3800.700395375734,2.335531e-06,2.174074e-06,-2.5589e-08,-0.053550303505,-1.3254853e-05,-0.000206103148,-8.377e-09,2.322634e-06,1.780716e-06,-7.9296487e-05,0.053550643056,1.55814e-07,249.858084166139,-0.001601997719,0.000973819561,249.857700776263,0.002098036549,249.865168869439,0.000556065606,-15.80591325006,45.049870189811,-3.856e-09,-15.999999596648,45.00000134487,-3.298e-09,4.37377e-07,1.098361e-06,1.182247e-06,-1.4376e-08,1.907373e-06,4.789935e-06,5.15575e-06,0.475122874558,-0.495934893592,-0.714149443108,0.135267913041,0.475122874558,-0.495934893592,-0.714149443108,0.135267913041,9.720489297779,720.987325757209,3.34e-10,888.091960808178,0.000112782096,1.538471901982,78.007480926081,300.0,84.598944215504,0.58276443526,0.038222774415,0.377445955478,0.000414323128,0.00110059438,1.385736e-05,3.805998e-05,0.01478383505,23480.745492646212,1.655e-09,1.0,1.999442919942,300,626.115104854686
3.6,12,1,626.115104854686,193047.97172628864,0,7009.110108697017,-16.113688403287,45.070716715469,20.150070102932,-31.840946292891,0.24036242339,0.015654899812,5242673.446874115,-3255784.5610813056,2249802.1629938604,-419.596626230589,5874.818309431365,3799.746441312181,2.335531e-06,2.174074e-06,-2.5589e-08,-0.054561902438,-1.4666794e-05,-0.000229061942,-1.7045e-08,2.069995e-06,3.715311e-06,-8.0851068e-05,0.054562325328,2.4125e-07,249.858084166139,-0.001601997719,0.000973819561,249.857700776263,0.002098036549,249.865168869439,0.000603946976,-15.788249466568,45.05443123378,-5.018e-09,-15.9999994175,45.000001711128,-3.874e-09,5.9716e-07,1.220859e-06,1.359085e-06,-1.6889e-08,2.604163e-06,5.32415e-06,5.926932e-06,0.475122874982,-0.495934895804,-0.714149441139,0.135267913833,0.475122874982,-0.495934895804,-0.714149441139,0.135267913833,9.735825031517,719.929752846538,3.4e-10,886.994328374554,0.000114600001,1.537872199671,79.311793907693,300.0,83.077238427454,0.584595376761,0.038498936026,0.375332467799,0.000408196235,0.001113831371,1.3686607e-05,3.75052e-05,0.01506498642,23497.77024087352,1.687e-09,1.0,1.999442919942,300,626.115104854686
3.9,13,1,626.115104854686,192467.6822539712,0,7009.870878859275,-16.116102201147,45.076641619768,20.162582495988,-31.827660172594,0.260400814337,0.016961565421,5242547.567886245,-3254022.1155884764,2250942.086926254,-421.541434970871,5876.204029909532,3798.791749458892,2.335531e-06,2.174074e-06,-2.5589e-08,-0.055593186179,-1.6215443e-05,-0.000252859653,-1.8739e-08,2.735259e-06,3.748207e-06,-8.2395804e-05,0.055593702533,2.42251e-07,249.858084166139,-0.001601997719,0.000973819561,249.857700776263,0.002098036549,249.865168869439,0.000651383364,-15.77058239014,45.058996854011,-6.532e-09,-15.999999195632,45.00000215406,-5.046e-09,7.39561e-07,1.476441e-06,1.651319e-06,-2.2003e-08,3.225162e-06,6.438743e-06,7.201359e-06,0.475122875662,-0.495934898303,-0.714149438812,0.135267914569,0.475122875662,-0.495934898303,-0.714149438812,0.135267914569,9.751671888472,718.83785252723,3.46e-10,885.80204804888,0.0001164413,1.537275431811,80.642014951692,300.0,81.578666169644,0.58640261077,0.038783523547,0.373233825483,0.00040221878,0.001127350064,1.3522132e-05,3.6949224e-05,0.015352254437,23514.617826766644,1.721e-09,1.0,1.999442919942,300,626.115104854686
4.2,14,1,626.115104854686,191887.24620158385,0,7010.631894351509,-16.118513967776,45.082571438695,20.175095894583,-31.814369164015,0.280440490555,0.018268513268,5242421.105455754,-3252259.2543795034,2252081.7244510916,-423.486716886138,5877.589459025587,3797.836319520752,2.335531e-06,2.174074e-06,-2.5589e-08,-0.056649657764,-1.7889939e-05,-0.000277437777,-1.1915e-08,1.88783e-06,2.156226e-06,-8.4045084e-05,0.056650277607,1.72766e-07,249.858084166139,-0.001601997719,0.000973819561,249.857700776263,0.002098036549,249.865168869439,0.000698363162,-15.752912024334,45.063567095254,-8.433e-09,-15.999998917313,45.000002674346,-6.335e-09,9.27729e-07,1.734287e-06,1.966843e-06,-2.7624e-08,4.045739e-06,7.563205e-06,8.577345e-06,0.475122876515,-0.495934901332,-0.714149435977,0.135267915436,0.475122876515,-0.495934901332,-0.714149435977,0.135267915436,9.767805354821,717.728459944301,3.53e-10,884.559088070817,0.000118313117,1.536680250501,81.999780430353,300.0,80.102012420203,0.58819852686,0.0390685089,0.371145784528,0.000396333453,0.001141091296,1.3362533e-05,3.639243e-05,0.015645967165,23531.339051012645,1.754e-09,1.0,1.999442919942,300,626.115104854686
4.5,15,1,626.115104854686,191306.6636026285,0,7011.393155178645,-16.120923702541,45.088506175571,20.187610298211,-31.801073262881,0.300481466868,0.019575742282,5242294.059440688,-3250495.977541796,2253221.0753469476,-425.432472071142,5878.974596441869,3796.880151201054,2.335531e-06,2.174074e-06,-2.5589e-08,-0.057727962701,-1.9550323e-05,-0.000302937698,-1.2941e-08,2.567394e-06,2.155531e-06,-8.5661514e-05,0.05772869731,1.73336e-07,249.858084166139,-0.001601997719,0.000973819561,249.857700776263,0.002098036549,249.865168869439,0.000744886017,-15.735238353764,45.068141961472,-1.0579e-08,-15.999998600034,45.000003239131,-7.155e-09,1.057599e-06,1.882617e-06,2.159355e-06,-3.1199e-08,4.612088e-06,8.210073e-06,9.41688e-06,0.475122877627,-0.495934904911,-0.714149432574,0.135267916377,0.475122877627,-0.495934904911,-0.714149432574,0.135267916377,9.783890118149,716.626318418353,3.6e-10,883.335239222652,0.000120225604,1.536082852155,83.386848348082,300.0,78.646480817187,0.590000132902,0.039349992847,0.369055377276,0.000390484555,0.001154972384,1.3204977e-05,3.5835059e-05,0.01594643893,23548.068341137852,1.789e-09,1.0,1.999442919942,300,626.115104854686
4.8,16,1,626.115104854686,190725.93449063777,0,7012.1546613472,-16.123331404807,45.094445833724,20.200125706365,-31.787772464918,0.320523726882,0.020883284928,5242166.429699067,-3248732.2851628633,2254360.139392308,-427.378700620584,5880.359441821754,3795.92324420382,2.335531e-06,2.174074e-06,-2.5589e-08,-0.058832379228,-2.1269767e-05,-0.000329340336,-1.4003e-08,3.270745e-06,2.154411e-06,-8.7317502e-05,0.058833240083,1.73898e-07,249.858084166139,-0.001601997719,0.000973819561,249.857700776263,0.002098036549,249.865168869439,0.000790961189,-15.717561394263,45.072721421797,-1.2993e-08,-15.999998229768,45.0000038484,-8.045e-09,1.234219e-06,2.030899e-06,2.376533e-06,-3.5081e-08,5.382307e-06,8.856732e-06,1.0363984e-05,0.475122878928,-0.495934908814,-0.714149428817,0.135267917332,0.475122878928,-0.495934908814,-0.714149428817,0.135267917332,9.799951087027,715.529557145389,3.66e-10,882.137118604459,0.00012218256,1.535479033517,84.80598565777,300.0,77.210251789982,0.591811568085,0.03963897199,0.366947492051,0.000384681218,0.001168965081,1.3046881e-05,3.5274692e-05,0.016254265659,23564.92273212294,1.825e-09,1.0,1.999442919942,300,626.115104854686
5.1,17,1,626.115104854686,190145.05889917846,0,7012.91641286163,-16.125737073937,45.100390416484,20.212642118537,-31.774466765847,0.340567285718,0.022191140826,5242038.216088881,-3246968.177330317,2255498.916365569,-429.325402629021,5881.743994826563,3794.965598231836,2.335531e-06,2.174074e-06,-2.5589e-08,-0.05996468646,-2.3050775e-05,-0.000356683787,-1.5104e-08,3.998692e-06,2.152807e-06,-8.9015735e-05,0.05996568563,1.74444e-07,249.858084166139,-0.001601997719,0.000973819561,249.857700776263,0.002098036549,249.865168869439,0.000836588499,-15.699881130145,45.077305479488,-1.5695e-08,-15.999997792,45.000004502131,-9.007e-09,1.459226e-06,2.179103e-06,2.622577e-06,-3.9282e-08,6.36353e-06,9.503056e-06,1.1436963e-05,0.475122880506,-0.495934913058,-0.714149424647,0.135267918241,0.475122880506,-0.495934913058,-0.714149424647,0.135267918241,9.816229709524,714.420568831789,3.73e-10,880.918425092356,0.00012418118,1.53486987214,86.25910193236,300.0,75.791799053527,0.593631071049,0.039933179858,0.364826154696,0.000378916082,0.0011830782,1.2888924e-05,3.4711191e-05,0.016569942385,23581.82803494032,1.861e-09,1.0,1.999442919942,300,626.115104854686
5.4,18,1,626.115104854686,189564.03686185,0,7013.678409725529,-16.128140709297,45.106339927185,20.225159534217,-31.761156161385,0.360612158988,0.023499309607,5241909.418468092,-3245203.654131869,2256637.4060450387,-431.272578190901,5883.128255116571,3794.007212987298,2.335531e-06,2.174074e-06,-2.5589e-08,-0.061128119324,-2.4823085e-05,-0.000384950908,-2.6308e-08,3.195949e-06,3.864446e-06,-9.0827963e-05,0.061129268977,2.48499e-07,249.858084166139,-0.001601997719,0.000973819561,249.857700776263,0.002098036549,249.865168869439,0.000881767773,-15.682197545238,45.081894137798,-1.8708e-08,-15.999997271707,45.00000520029,-1.0045e-08,1.734311e-06,2.327197e-06,2.902375e-06,-4.3813e-08,7.563138e-06,1.0148898e-05,1.2657136e-05,0.475122882451,-0.49593491766,-0.714149420006,0.13526791904,0.475122882451,-0.49593491766,-0.714149420006,0.13526791904,9.833067179337,713.274737353938,3.81e-10,879.602401249874,0.000126213485,1.534261417511,87.746654427607,300.0,74.390538001997,0.595451485877,0.040217954818,0.362713157346,0.000373168205,0.00119735204,1.2734791e-05,3.4146922e-05,0.016893708189,23598.551328221733,1.899e-09,1.0,1.999442919942,300,626.115104854686
5.7,19,1,626.115104854686,188982.86841228622,0,7014.440651940926,-16.130542310252,45.112294369163,20.237677952894,-31.747840647247,0.380658362812,0.024807790913,5241780.036694635,-3243438.715655334,2257775.608208935,-433.220227400517,5884.512222350451,3793.048088171391,2.335531e-06,2.174074e-06,-2.5589e-08,-0.062315672907,-2.6732576e-05,-0.000414261447,-2.8285e-08,3.941297e-06,3.89899e-06,-9.2610324e-05,0.062316986772,2.49288e-07,249.858084166139,-0.001601997719,0.000973819561,249.857700776263,0.002098036549,249.865168869439,0.000926498837,-15.664510622858,45.086487399975,-2.2265e-08,-15.999996685455,45.000005978202,-1.1854e-08,1.954171e-06,2.593038e-06,3.246963e-06,-5.1706e-08,8.521922e-06,1.1308231e-05,1.415987e-05,0.475122884856,-0.495934922638,-0.714149414831,0.135267919664,0.475122884856,-0.495934922638,-0.714149414831,0.135267919664,9.850031639923,712.123667045997,3.88e-10,878.261534314685,0.00012828442,1.533656324703,89.265864900047,300.0,73.010327040945,0.597254842182,0.040502696592,0.360616937185,0.00036751624,0.001211838094,1.2586388e-05,3.3583318e-05,0.017224890069,23615.136756483644,1.937e-09,1.0,1.999442919942,300,626.115104854686
6.0,20,1,626.115104854686,188401.55358415298,0,7015.203139513196,-16.132941876166,45.118253745761,20.250197374054,-31.734520219141,0.40070588172,0.026116549025,5241650.070626414,-3241673.361988629,2258913.5226353863,-435.168350352296,5885.89589618931,3792.088223487069,2.335531e-06,2.174074e-06,-2.5589e-08,-0.063527107862,-2.8707529e-05,-0.000444572585,-3.0334e-08,4.712721e-06,3.933859e-06,-9.4429047e-05,0.063528599743,2.50062e-07,249.858084166139,-0.001601997719,0.000973819561,249.857700776263,0.002098036549,249.865168869439,0.000970771403,-15.646820377913,45.091085305987,-2.6404e-08,-15.999996017863,45.000006836578,-1.38e-08,2.225307e-06,2.861255e-06,3.624771e-06,-6.0191e-08,9.704311e-06,1.2477928e-05,1.5807466e-05,0.475122887576,-0.495934928193,-0.714149409038,0.13526792033,0.475122887576,-0.495934928193,-0.714149409038,0.13526792033,9.866615361759,711.004015288061,3.95e-10,876.990744411602,0.000130401778,1.533053325822,90.814131497464,300.0,71.654782079858,0.599031943584,0.040801856658,0.35853213184,0.000362026334,0.001226577339,1.244339e-05,3.3020853e-05,0.017562802278,23631.7407113921,1.977e-09,1.0,1.999442919942,300,626.115104854686
6.3,21,1,626.115104854686,187820.09241115174,0,7015.965872447819,-16.135339406404,45.124218060321,20.262717797184,-31.721194872774,0.420754732194,0.027425582838,5241519.520121309,-3239907.593219772,2260051.1491024327,-437.116947140617,5887.279276294046,3791.127618637176,2.335531e-06,2.174074e-06,-2.5589e-08,-0.064763696048,-3.0765843e-05,-0.000475828262,-2.7723e-08,3.443961e-06,3.590457e-06,-9.6376662e-05,0.064765379612,2.35195e-07,249.858084166139,-0.001601997719,0.000973819561,249.857700776263,0.002098036549,249.865168869439,0.001014585106,-15.62912679336,45.095687859852,-3.117e-08,-15.99999525301,45.000007776139,-1.5885e-08,2.549512e-06,3.13187e-06,4.038425e-06,-6.9291e-08,1.1118127e-05,1.3658086e-05,1.7611385e-05,0.475122890706,-0.495934934347,-0.71414940256,0.135267920974,0.475122890706,-0.495934934347,-0.71414940256,0.135267920974,9.883525144031,709.864726421553,4.03e-10,875.682811145313,0.000132554438,1.532444241173,92.395262745882,300.0,70.320490288886,0.600819445921,0.041106338402,0.356431343235,0.000356561224,0.001241551167,1.2301159e-05,3.2458892e-05,0.017908413195,23648.39232632171,2.017e-09,1.0,1.999442919942,300,626.115104854686
6.6,22,1,626.115104854686,187238.48492701486,0,7016.728850749645,-16.13773490033,45.130187316193,20.275239221766,-31.707864603849,0.440804931252,0.028734891238,5241388.385037167,-3238141.409436884,2261188.4873880236,-439.066017859797,5888.662362324725,3790.16627332408,2.335531e-06,2.174074e-06,-2.5589e-08,-0.066033287007,-3.2882496e-05,-0.000508293743,-2.9662e-08,4.243549e-06,3.620888e-06,-9.8286591e-05,0.066035178326,2.35368e-07,249.858084166139,-0.001601997719,0.000973819561,249.857700776263,0.002098036549,249.865168869439,0.001057939577,-15.611429851616,45.100295065601,-3.6508e-08,-15.99999441708,45.000008789798,-1.7792e-08,2.786434e-06,3.378863e-06,4.37964e-06,-7.7608e-08,1.2151316e-05,1.4735223e-05,1.9099406e-05,0.475122894343,-0.495934941126,-0.714149395328,0.13526792153,0.475122894343,-0.495934941126,-0.714149395328,0.13526792153,9.90109555981,708.682065369795,4.11e-10,874.279915098246,0.00013474014,1.531828461014,94.013456232135,300.0,69.003992871502,0.602625718102,0.041409295674,0.354313150969,0.000351057177,0.001256723941,1.21579e-05,3.1896236e-05,0.018262748119,23665.028225263475,2.058e-09,1.0,1.999442919942,300,626.115104854686
6.9,23,1,626.115104854686,186656.7311655059,0,7017.492074419757,-16.140128357309,45.136161516726,20.287761647283,-31.694529408063,0.460856453809,0.03004448092,5241256.665231808,-3236374.8107281863,2262325.5372700207,-441.01556260378,5890.045153937909,3789.204187248018,2.335531e-06,2.174074e-06,-2.5589e-08,-0.067335640322,-3.5074735e-05,-0.000541914051,-3.1678e-08,5.071651e-06,3.651783e-06,-0.000100246313,0.067337755452,2.35507e-07,249.858084166139,-0.001601997719,0.000973819561,249.857700776263,0.002098036549,249.865168869439,0.001100836723,-15.593729577204,45.10490691916,-4.2457e-08,-15.999993493571,45.000009878183,-1.9832e-08,3.078363e-06,3.627949e-06,4.758017e-06,-8.6507e-08,1.342438e-05,1.582149e-05,2.0749482e-05,0.475122898333,-0.495934948452,-0.714149387481,0.135267922082,0.475122898333,-0.495934948452,-0.714149387481,0.135267922082,9.918630466599,707.506151988552,4.19e-10,872.876904217813,0.00013697943,1.531218274895,95.671136474181,300.0,67.703914656754,0.604404630015,0.041715009584,0.352219328215,0.000345625863,0.001272057703,1.2017412e-05,3.1331209e-05,0.018626279792,23681.519211952673,2.1e-09,1.0,1.999442919942,300,626.115104854686
7.2,24,1,626.115104854686,186074.83116042835,0,7018.255543459341,-16.142519776704,45.142140665278,20.300285073215,-31.68118928111,0.480909317468,0.031354350862,5241124.360563028,-3234607.797182005,2263462.298526195,-442.96558146649,5891.427650789934,3788.241360109148,2.335531e-06,2.174074e-06,-2.5589e-08,-0.068674446678,-3.7397681e-05,-0.000576632611,-2.3118e-08,3.075467e-06,2.46669e-06,-0.000102383492,0.06867680138,1.84794e-07,249.858084166139,-0.001601997719,0.000973819561,249.857700776263,0.002098036549,249.865168869439,0.001143276196,-15.576025951959,45.109523424472,-4.906e-08,-15.999992465393,45.000011041931,-2.201e-08,3.42726e-06,3.87916e-06,5.176338e-06,-9.601e-08,1.4945876e-05,1.6917024e-05,2.2573749e-05,0.475122902778,-0.495934956349,-0.714149378949,0.135267922561,0.475122902778,-0.495934956349,-0.714149378949,0.135267922561,9.936125129278,706.337274555771,4.27e-10,871.482337223444,0.000139273474,1.530610324053,97.369117216344,300.0,66.420729409189,0.606167602168,0.042023847783,0.3501380558,0.000340323563,0.001287524606,1.1881253e-05,3.0764828e-05,0.018999187774,23697.933340270378,2.144e-09,1.0,1.999442919942,300,626.115104854686
7.5,25,1,626.115104854686,185492.78494561382,0,7019.019257867799,-16.14490915788,45.148124765206,20.312809499042,-31.667844218683,0.500963540419,0.032664500033,5240991.470888588,-3232840.3688867684,2264598.770934228,-444.916074541736,5892.809852535323,3787.277791606528,2.335531e-06,2.174074e-06,-2.5589e-08,-0.070043124507,-3.9748548e-05,-0.000612674314,-2.4518e-08,3.897029e-06,2.469955e-06,-0.000104444338,0.070045737428,1.84751e-07,249.858084166139,-0.001601997719,0.000973819561,249.857700776263,0.002098036549,249.865168869439,0.001185257645,-15.558318957126,45.114144585493,-5.614e-08,-15.999991373743,45.000012256585,-2.3599e-08,3.638833e-06,4.048847e-06,5.443787e-06,-1.02946e-07,1.5868516e-05,1.7657031e-05,2.3740075e-05,0.475122907783,-0.495934964843,-0.714149369657,0.135267922895,0.475122907783,-0.495934964843,-0.714149369657,0.135267922895,9.95406840291,705.140749868228,4.36e-10,870.039434144095,0.000141608269,1.529992199706,99.106806351577,300.0,65.15605759897,0.607959176595,0.042333540714,0.348027071077,0.000335139889,0.001303123238,1.1748771e-05,3.0199716e-05,0.019381403725,23714.43444294184,2.188e-09,1.0,1.999442919942,300,626.115104854686
7.8,26,1,626.115104854686,184910.59255493208,0,7019.783217647678,-16.1472965002,45.154113819872,20.32533492424,-31.654494216468,0.521019082568,0.033974952497,5240857.996066225,-3231072.5259310068,2265734.95427171,-446.867041923337,5894.191758830905,3786.31348144082,2.335531e-06,2.174074e-06,-2.5589e-08,-0.071446186897,-4.2123178e-05,-0.000649884481,-3.81e-08,2.257408e-06,3.856428e-06,-0.000106662802,0.071449075357,2.44342e-07,249.858084166139,-0.001601997719,0.000973819561,249.857700776263,0.002098036549,249.865168869439,0.001226787917,-15.540608632239,45.118770380134,-6.3725e-08,-15.999990201665,45.000013522212,-2.5285e-08,3.906924e-06,4.218758e-06,5.75001e-06,-1.10301e-07,1.7037625e-05,1.8398018e-05,2.5075484e-05,0.475122913122,-0.495934973731,-0.714149359882,0.135267923163,0.475122913122,-0.495934973731,-0.714149359882,0.135267923163,9.972208621319,703.934653216213,4.44e-10,868.576391305303,0.000143986551,1.529371136864,100.882359848027,300.0,63.911642631512,0.609751147389,0.042647395355,0.345911259213,0.000329988007,0.001318955291,1.16184e-05,2.9636345e-05,0.019772525801,23730.932985914886,2.234e-09,1.0,1.999442919942,300,626.115104854686
8.1,27,1,626.115104854686,184328.2540222822,0,7020.547422799345,-16.149681803028,45.160107832643,20.337861348286,-31.641139270147,0.541075961971,0.035285707793,5240723.935953648,-3229304.268403358,2266870.8483161423,-448.818483704995,5895.573369331393,3785.348429311331,2.335531e-06,2.174074e-06,-2.5589e-08,-0.072875845914,-4.4652753e-05,-0.000688348368,-3.7603e-08,1.045382e-06,3.591253e-06,-0.000108904777,0.072879029046,2.29955e-07,249.858084166139,-0.001601997719,0.000973819561,249.857700776263,0.002098036549,249.865168869439,0.001267866807,-15.522894958677,45.123400811773,-7.2097e-08,-15.999988983,45.000014867427,-2.7906e-08,4.062218e-06,4.484048e-06,6.050544e-06,-1.21731e-07,1.7714847e-05,1.9554947e-05,2.6386105e-05,0.4751229189,-0.495934983034,-0.714149349554,0.13526792329,0.4751229189,-0.495934983034,-0.714149349554,0.13526792329,9.990259946115,702.739214061164,4.53e-10,867.125696717519,0.000146415029,1.52875480028,102.695578825334,300.0,62.68781123545,0.611515014456,0.04296784397,0.343816674769,0.000324817799,0.001335085411,1.1489368e-05,2.9074227e-05,0.020172507798,23747.33333182502,2.28e-09,1.0,1.999442919942,300,626.115104854686
8.4,28,1,626.115104854686,183745.76938160037,0,7021.311873326892,-16.152065065728,45.166106806888,20.350388770654,-31.627779375401,0.561134145892,0.036596736912,5240589.290408537,-3227535.5963925584,2268006.452844936,-450.770399980575,5896.954683694254,3784.382634919326,2.335531e-06,2.174074e-06,-2.5589e-08,-0.074343003233,-4.7258251e-05,-0.0007282687,-3.9725e-08,1.871834e-06,3.622224e-06,-0.000111118683,0.07434650221,2.2938e-07,249.858084166139,-0.001601997719,0.000973819561,249.857700776263,0.002098036549,249.865168869439,0.001308485941,-15.505177968613,45.128035913414,-8.1245e-08,-15.99998774276,45.000016286756,-3.0493e-08,4.134132e-06,4.731097e-06,6.282934e-06,-1.33012e-07,1.8028461e-05,2.0632322e-05,2.7399559e-05,0.47512292487,-0.49593499289,-0.714149338689,0.135267923541,0.47512292487,-0.49593499289,-0.714149338689,0.135267923541,10.008531635453,701.532665236878,4.62e-10,865.650344469283,0.000148893009,1.528135702674,104.55140868998,300.0,61.481757592609,0.613280496612,0.043290664993,0.34171783064,0.000319724988,0.001351406758,1.1363446e-05,2.8512563e-05,0.020582501642,23763.7146343255,2.328e-09,1.0,1.999442919942,300,626.115104854686
8.7,29,1,626.115104854686,183163.1386668547,0,7022.076569229169,-16.154446287664,45.172110745979,20.362917190816,-31.614414527905,0.58119361042,0.037908044932,5240454.059288542,-3225766.50998745,2269141.7676354116,-452.722790843492,5898.335701572245,3783.416097963112,2.335531e-06,2.174074e-06,-2.5589e-08,-0.075848495443,-4.9956737e-05,-0.000769608268,-4.193e-08,2.728834e-06,3.653497e-06,-0.000113391019,0.075852331513,2.28718e-07,249.858084166139,-0.001601997719,0.000973819561,249.857700776263,0.002098036549,249.865168869439,0.001348646717,-15.487457685395,45.132675682686,-9.1213e-08,-15.99998646389,45.000017780839,-3.3226e-08,4.262901e-06,4.980276e-06,6.555653e-06,-1.4493e-07,1.8590012e-05,2.171899e-05,2.858888e-05,0.475122930885,-0.495935003238,-0.714149327415,0.135267924002,0.475122930885,-0.495935003238,-0.714149327415,0.135267924002,10.027166943589,700.305141894424,4.72e-10,864.131187285594,0.000151421361,1.527511444669,106.453292688347,300.0,60.291897268802,0.615057622049,0.043613861073,0.339606719174,0.000314738108,0.00136786804,1.1240193e-05,2.7951363e-05,0.021003321946,23780.091499791244,2.377e-09,1.0,1.999442919942,300,626.115104854686
9.0,30,1,626.115104854686,182580.36191204673,0,7022.841510504616,-16.156825468198,45.178119653294,20.375446608243,-31.60104472333,0.601254373717,0.039219630819,5240318.24245129,-3223997.0092769787,2270276.7924648006,-454.675656387105,5899.716422617462,3782.448818140636,2.335531e-06,2.174074e-06,-2.5589e-08,-0.077392964863,-5.2751304e-05,-0.000812414258,-4.4221e-08,3.617487e-06,3.685107e-06,-0.000115722798,0.077397160272,2.27972e-07,249.858084166139,-0.001601997719,0.000973819561,249.857700776263,0.002098036549,249.865168869439,0.00138834878,-15.4697340903,45.137320123561,-1.02046e-07,-15.999985128702,45.000019350321,-3.6111e-08,4.450627e-06,5.231606e-06,6.868703e-06,-1.57509e-07,1.9408662e-05,2.2815039e-05,2.9954081e-05,0.475122937048,-0.4959350141,-0.714149315658,0.1352679246,0.475122937048,-0.4959350141,-0.714149315658,0.1352679246,10.046023454748,699.066804107988,4.81e-10,862.581012392583,0.000154004096,1.526887474666,108.401856323315,300.0,59.11842902721,0.616826139747,0.043939182163,0.3375018722,0.000309792707,0.001384504914,1.1116865e-05,2.7391403e-05,0.021435134003,23796.3877500252,2.428e-09,1.0,1.999442919942,300,626.115104854686
9.3,31,1,626.115104854686,181997.43915121563,0,7023.606697151348,-16.159202606694,45.184133532213,20.387977022405,-31.587669957345,0.621316454572,0.040531493534,5240181.839754374,-3222227.0943501936,2271411.5271102428,-456.628996704683,5901.096846481407,3781.480795149555,2.335531e-06,2.174074e-06,-2.5589e-08,-0.078973053621,-5.5574812e-05,-0.000856581211,-6.1621e-08,1.978822e-06,5.28129e-06,-0.000118219191,0.078977630012,2.94625e-07,249.858084166139,-0.001601997719,0.000973819561,249.857700776263,0.002098036549,249.865168869439,0.001427591773,-15.452007163972,45.141969240026,-1.13792e-07,-15.999983718856,45.000020995854,-3.9152e-08,4.699486e-06,5.48511e-06,7.223097e-06,-1.70775e-07,2.0493908e-05,2.3920571e-05,3.1499574e-05,0.475122943469,-0.495935025502,-0.714149303343,0.135267925261,0.475122943469,-0.495935025502,-0.714149303343,0.135267925261,10.06510027604,697.817856208666,4.91e-10,860.992913653983,0.000156639265,1.526267198731,110.396423837678,300.0,57.962328390956,0.618571349118,0.04427004175,0.335414594466,0.000304872752,0.00140131342,1.0995854e-05,2.683264e-05,0.021877833336,23812.546885694937,2.479e-09,1.0,1.999442919942,300,626.115104854686
9.6,32,1,626.115104854686,181414.3704184295,0,7024.372129169082,-16.161577702515,45.190152386119,20.400508432768,-31.574290225613,0.641379872433,0.041843632029,5240044.851055362,-3220456.765296249,2272545.9713487877,-458.582811889556,5902.476972816628,3780.512028688215,2.335531e-06,2.174074e-06,-2.5589e-08,-0.080594706658,-5.8566975e-05,-0.000902430252,-6.4793e-08,2.898487e-06,5.334982e-06,-0.000120672234,0.080599689763,2.9574e-07,249.858084166139,-0.001601997719,0.000973819561,249.857700776263,0.002098036549,249.865168869439,0.001466375336,-15.434276886403,45.146623036076,-1.26809e-07,-15.999982268172,45.000022750379,-4.3392e-08,4.835615e-06,5.848419e-06,7.588746e-06,-1.89261e-07,2.1087555e-05,2.5504958e-05,3.3094163e-05,0.475122950262,-0.49593503747,-0.714149290389,0.135267925909,0.475122950262,-0.49593503747,-0.714149290389,0.135267925909,10.084437012176,696.555704665298,5.01e-10,859.361138872121,0.00015932468,1.525650424129,112.436850571211,300.0,56.824268567781,0.620292496371,0.044608061334,0.333344018493,0.000299996161,0.001418272445,1.0880345e-05,2.6274852e-05,0.022331422588,23828.57066789282,2.532e-09,1.0,1.999442919942,300,626.115104854686
9.9,33,1,626.115104854686,180831.1557477944,0,7025.137806554672,-16.163950755025,45.1961762184,20.4130408388,-31.560905523794,0.661444594586,0.043156012966,5239907.276211795,-3218686.022204404,2273680.1249573943,-460.537102034755,5903.856801272888,3779.542518453398,2.335531e-06,2.174074e-06,-2.5589e-08,-0.082258156216,-6.1665306e-05,-0.00094990097,-6.8079e-08,3.85259e-06,5.389464e-06,-0.000123189196,0.082263571542,2.96829e-07,249.858084166139,-0.001601997719,0.000973819561,249.857700776263,0.002098036549,249.865168869439,0.001504689892,-15.416543289744,45.151281549202,-1.41164e-07,-15.999980757668,45.000024615006,-4.7849e-08,5.03501e-06,6.215422e-06,7.999068e-06,-2.08699e-07,2.1957101e-05,2.7105452e-05,3.4883569e-05,0.475122957176,-0.495935050171,-0.714149276796,0.135267926824,0.475122957176,-0.495935050171,-0.714149276796,0.135267926824,10.103875268539,695.291422334657,5.11e-10,857.731617665376,0.000162071692,1.525028644427,114.527585162616,300.0,55.70277204207,0.622025608313,0.044945479108,0.331261840598,0.00029520301,0.001435383654,1.0766363e-05,2.5718954e-05,0.022796835786,23844.62991662052,2.587e-09,1.0,1.999442919942,300,626.115104854686
10.2,34,1,626.115104854686,180247.79517344828,0,7025.903729304844,-16.166321763585,45.202205032447,20.425574239965,-31.547515847545,0.681510641117,0.044468634841,5239769.115081185,-3216914.8651640224,2274813.9877129304,-462.491867233253,5905.236331499545,3778.572264141654,2.335531e-06,2.174074e-06,-2.5589e-08,-0.083964885959,-6.4873849e-05,-0.000999055137,-7.1484e-08,4.842411e-06,5.444766e-06,-0.000125772355,0.083970760239,2.97893e-07,249.858084166139,-0.001601997719,0.000973819561,249.857700776263,0.002098036549,249.865168869439,0.001542534971,-15.398806353344,45.155944783872,-1.56924e-07,-15.999979167656,45.000026590858,-5.2533e-08,5.300043e-06,6.586172e-06,8.454045e-06,-2.29123e-07,2.3112878e-05,2.8722291e-05,3.6867705e-05,0.475122964326,-0.495935063634,-0.714149262481,0.135267927929,0.475122964326,-0.495935063634,-0.714149262481,0.135267927929,10.123421540325,694.024614239178,5.22e-10,856.108790061244,0.000164882525,1.524399408104,116.670495945954,300.0,54.597610647294,0.623780422041,0.045280467626,0.329159909904,0.00029050125,0.001452881275,1.0652118e-05,2.5165785e-05,0.023274507593,23860.767570488602,2.643e-09,1.0,1.999442919942,300,626.115104854686
10.5,35,1,626.115104854686,179664.28872956516,0,7026.669897415603,-16.16869072756,45.208238831654,20.438108635725,-31.534121192519,0.701578032826,0.045781496135,5239630.367521015,-3215143.294264573,2275947.559392173,-464.44710757791,5906.615563145027,3777.601265449022,2.335531e-06,2.174074e-06,-2.5589e-08,-0.085715857308,-6.8237676e-05,-0.001049815794,-6.0018e-08,2.54751e-06,4.475062e-06,-0.000128557627,0.085722216703,2.57651e-07,249.858084166139,-0.001601997719,0.000973819561,249.857700776263,0.002098036549,249.865168869439,0.001579910096,-15.381066055842,45.16061274457,-1.74159e-07,-15.999977477705,45.000028679075,-5.745e-08,5.633169e-06,6.960726e-06,8.954753e-06,-2.50568e-07,2.4565601e-05,3.0355721e-05,3.9051266e-05,0.475122971835,-0.49593507789,-0.714149247356,0.135267929142,0.475122971835,-0.49593507789,-0.714149247356,0.135267929142,10.143453578905,692.729536617474,5.33e-10,854.408454384217,0.00016773786,1.523772436924,118.861489233174,300.0,53.510910250497,0.625513862116,0.045623774864,0.327070053422,0.000285841347,0.001471311027,1.0541761e-05,2.4615464e-05,0.02376370351,23876.77020625887,2.7e-09,1.0,1.999442919942,300,626.115104854686
10.8,36,1,626.115104854686,179080.63645035334,0,7027.436310882481,-16.171057646312,45.21427761942,20.450644025541,-31.520721554364,0.721646791248,0.04709459531,5239491.033388741,-3213371.309595629,2277080.8397718077,-466.402823161545,5907.994495857044,3776.629522071152,2.335531e-06,2.174074e-06,-2.5589e-08,-0.087507682902,-7.1674568e-05,-0.001102455678,-6.2848e-08,3.530997e-06,4.506288e-06,-0.000131271296,0.087514558106,2.58551e-07,249.858084166139,-0.001601997719,0.000973819561,249.857700776263,0.002098036549,249.865168869439,0.001616814786,-15.363322375139,45.165285435804,-1.92632e-07,-15.999975735179,45.000030859647,-6.1579e-08,5.80842e-06,7.268573e-06,9.304498e-06,-2.68574e-07,2.5329854e-05,3.169824e-05,4.0576496e-05,0.475122979827,-0.495935092971,-0.714149231331,0.135267930378,0.475122979827,-0.495935092971,-0.714149231331,0.135267930378,10.163916969493,691.410243902523,5.44e-10,852.643355838319,0.000170645135,1.523146470887,121.104923746363,300.0,52.441013119031,0.62722968398,0.045976132274,0.324988279938,0.000281231546,0.00149016951,1.0435396e-05,2.4067358e-05,0.024265410436,23892.667700307244,2.759e-09,1.0,1.999442919942,300,626.115104854686
11.1,37,1,626.115104854686,178496.83837005298,0,7028.202969702617,-16.173422519204,45.220321399147,20.463180408874,-31.507316928724,0.741716870129,0.048407951985,5239351.112541793,-3211598.911246872,2278213.828628429,-468.359014076888,5909.373129284317,3775.657033704478,2.335531e-06,2.174074e-06,-2.5589e-08,-0.089350992886,-7.5237542e-05,-0.001157021227,-6.5781e-08,4.551923e-06,4.537881e-06,-0.000134063627,0.089358414911,2.59447e-07,249.858084166139,-0.001601997719,0.000973819561,249.857700776263,0.002098036549,249.865168869439,0.001653254671,-15.345575356924,45.169962840146,-2.12403e-07,-15.999973919781,45.000033133218,-6.5902e-08,6.051329e-06,7.578568e-06,9.69833e-06,-2.87428e-07,2.6389153e-05,3.3050126e-05,4.2293981e-05,0.475122988033,-0.495935108694,-0.714149214691,0.135267931763,0.475122988033,-0.495935108694,-0.714149214691,0.135267931763,10.184435479637,690.09254207119,5.55e-10,850.895079632851,0.000173630891,1.522513000617,123.410502403788,300.0,51.384462654402,0.628963164948,0.046330630066,0.322887235321,0.000276712511,0.001508406344,1.0330111e-05,2.3520699e-05,0.024781692219,23908.65110539217,2.82e-09,1.0,1.999442919942,300,626.115104854686
11.4,38,1,626.115104854686,177912.89452294188,0,7028.969873868049,-16.175785345599,45.226370174239,20.475717785181,-31.493907311241,0.761788290876,0.049721565118,5239210.604837569,-3209826.0993080866,2279346.5257385406,-470.315680416322,5910.751463070955,3774.683800042554,2.335531e-06,2.174074e-06,-2.5589e-08,-0.091243576782,-7.8928273e-05,-0.001213537377,-6.8817e-08,5.611524e-06,4.569556e-06,-0.000136931381,0.09125157783,2.60314e-07,249.858084166139,-0.001601997719,0.000973819561,249.857700776263,0.002098036549,249.865168869439,0.001689229398,-15.327824979227,45.174644961601,-2.33531e-07,-15.999972010439,45.000035500438,-7.0426e-08,6.364472e-06,7.890735e-06,1.0137808e-05,-3.07162e-07,2.775473e-05,3.441149e-05,4.421052e-05,0.475122996577,-0.495935125088,-0.714149197348,0.13526793321,0.475122996577,-0.495935125088,-0.714149197348,0.13526793321,10.205153828935,688.766675318334,5.67e-10,849.133647994083,0.000176684627,1.521874739402,125.775074192574,300.0,50.343395674583,0.630705767117,0.046686316508,0.320775909645,0.000272225175,0.001526579772,1.0225787e-05,2.2975995e-05,0.025311934534,23924.650751889567,2.882e-09,1.0,1.999442919942,300,626.115104854686
11.7,39,1,626.115104854686,177328.80494333257,0,7029.73702337185,-16.178146124858,45.232423948107,20.488256153918,-31.480492697552,0.781861075669,0.051035433664,5239069.510133444,-3208052.873869166,2280478.9308785535,-472.272822272227,5912.129496861618,3773.709820779378,2.335531e-06,2.174074e-06,-2.5589e-08,-0.093182562017,-8.2747647e-05,-0.001272016922,-7.1955e-08,6.710802e-06,4.60099e-06,-0.000139870334,0.093191175411,2.61121e-07,249.858084166139,-0.001601997719,0.000973819561,249.857700776263,0.002098036549,249.865168869439,0.001724738611,-15.310071219305,45.179331804183,-2.56079e-07,-15.999969985287,45.000037961963,-7.5159e-08,6.750509e-06,8.205081e-06,1.0625364e-05,-3.27807e-07,2.9438187e-05,3.5782357e-05,4.6336718e-05,0.475123005591,-0.495935142182,-0.714149179211,0.13526793463,0.475123005591,-0.495935142182,-0.714149179211,0.13526793463,10.226235197623,687.421801623128,5.79e-10,847.321941932126,0.000179793375,1.52123656898,128.194549909513,300.0,49.319956131461,0.632439322854,0.047044902879,0.318670080184,0.000267723377,0.001545413333,1.0123385e-05,2.2433988e-05,0.025855326195,23940.562985367636,2.946e-09,1.0,1.999442919942,300,626.115104854686
12.0,40,1,626.115104854686,176744.56966556853,0,7030.504418208466,-16.180504856345,45.238482724162,20.500795514539,-31.467073083291,0.801935247488,0.05234955657,5238927.828286762,-3206279.2350201067,2281611.0438247873,-474.230439737,5913.507230301785,3772.735095609564,2.335531e-06,2.174074e-06,-2.5589e-08,-0.095172591391,-8.6703095e-05,-0.001332573912,-7.5203e-08,7.851562e-06,4.632499e-06,-0.000142887496,0.095181852293,2.61901e-07,249.858084166139,-0.001601997719,0.000973819561,249.857700776263,0.002098036549,249.865168869439,0.001759781952,-15.292314053614,45.184023371913,-2.80111e-07,-15.999967821636,45.000040518439,-8.0108e-08,7.212169e-06,8.521589e-06,1.1164196e-05,-3.49394e-07,3.1451428e-05,3.7162654e-05,4.868652e-05,0.475123015209,-0.495935160007,-0.714149160188,0.135267935931,0.475123015209,-0.495935160007,-0.714149160188,0.135267935931,10.247352251182,686.080096192406,5.91e-10,845.513102245498,0.000182976346,1.520599162613,130.674968527733,300.0,48.312207403414,0.634159451242,0.047408938341,0.316571760686,0.000263277985,0.001564652476,1.0024027e-05,2.1895244e-05,0.026413168919,23956.42819374345,3.012e-09,1.0,1.999442919942,300,626.115104854686
12.3,41,1,626.115104854686,176160.18872403173,0,7031.272058370102,-16.182861539421,45.244546505821,20.513335866499,-31.453648464085,0.822010830131,0.053663932792,5238785.559154842,-3204505.182851016,2282742.86435347,-476.188532902815,5914.884663034726,3771.75962422641,2.335531e-06,2.174074e-06,-2.5589e-08,-0.097212818182,-9.0868923e-05,-0.001395133561,-5.0517e-08,6.161129e-06,2.898756e-06,-0.000146098221,0.097222761373,1.9112e-07,249.858084166139,-0.001601997719,0.000973819561,249.857700776263,0.002098036549,249.865168869439,0.001794359062,-15.274553457794,45.188719668807,-3.05695e-07,-15.999965495943,45.000043170518,-8.5279e-08,7.752308e-06,8.840263e-06,1.1758223e-05,-3.71955e-07,3.3806896e-05,3.8552404e-05,5.1277016e-05,0.475123025571,-0.495935178593,-0.714149140181,0.135267937017,0.475123025571,-0.495935178593,-0.714149140181,0.135267937017,10.268516556015,684.740782177651,6.04e-10,843.705826601962,0.000186237144,1.519962149471,133.219362085026,300.0,47.319540544219,0.635867670807,0.047778339027,0.314479711466,0.000258931229,0.001584059927,9.927222e-06,2.136032e-05,0.026986181808,23972.244751907183,3.079e-09,1.0,1.999442919942,300,626.115104854686
12.6,42,1,626.115104854686,175575.6621531394,0,7032.039943849355,-16.18521617345,45.250615296504,20.525877209247,-31.440218835562,0.842087848253,0.054978561282,5238642.70259497,-3202730.7174521056,2283874.392240738,-478.147101861866,5916.261794703711,3770.7834063233,2.335531e-06,2.174074e-06,-2.5589e-08,-0.09930925955,-9.5113508e-05,-0.001460066849,-5.2879e-08,7.345973e-06,2.903645e-06,-0.000149282142,0.099319925438,1.8961e-07,249.858084166139,-0.001601997719,0.000973819561,249.857700776263,0.002098036549,249.865168869439,0.00182846958,-15.256789406626,45.193420698891,-3.3232e-07,-15.999963043097,45.000045882419,-8.8752e-08,8.176155e-06,9.039671e-06,1.2189054e-05,-3.8711e-07,3.5655235e-05,3.942203e-05,5.3155828e-05,0.475123036824,-0.495935197972,-0.714149119091,0.135267937788,0.475123036824,-0.495935197972,-0.714149119091,0.135267937788,10.290194927683,683.372860598736,6.17e-10,841.825377053545,0.000189556478,1.519324676358,135.826201502584,300.0,46.342935238764,0.637569448197,0.048150335809,0.312391287512,0.000254671358,0.001603596475,9.831035e-06,2.0829614e-05,0.027574191823,23987.944312748532,3.148e-09,1.0,1.999442919942,300,626.115104854686
12.9,43,1,626.115104854686,174990.98998733857,0,7032.808074635921,-16.187568757794,45.256689099635,20.538419542234,-31.426784193343,0.862166268081,0.056293477429,5238499.258464412,-3200955.8389136945,2285005.627262635,-480.106146705945,5917.638624949243,3769.806441591959,2.335531e-06,2.174074e-06,-2.5589e-08,-0.101464451664,-9.9512724e-05,-0.001527358138,-5.5334e-08,8.575964e-06,2.907923e-06,-0.00015255625,0.101475880896,1.87977e-07,249.858084166139,-0.001601997719,0.000973819561,249.857700776263,0.002098036549,249.865168869439,0.001862123648,-15.239021933318,45.19812642843,-3.60036e-07,-15.999960438643,45.000048654244,-9.2388e-08,8.681513e-06,9.239414e-06,1.2678485e-05,-4.02974e-07,3.7859027e-05,4.0293124e-05,5.5290181e-05,0.475123048794,-0.495935217879,-0.714149097215,0.135267938251,0.475123048794,-0.495935217879,-0.714149097215,0.135267938251,10.31240983284,681.975230681759,6.3e-10,839.869491308544,0.000192942992,1.518686601719,138.50255119509,300.0,45.380290269242,0.639265711711,0.048524335097,0.310306107975,0.000250461933,0.001623343735,9.736732e-06,2.0302817e-05,0.028178848185,24003.52877898907,3.22e-09,1.0,1.999442919942,300,626.115104854686
13.2,44,1,626.115104854686,174406.1722611174,0,7033.576450718279,-16.189919291815,45.262767918641,20.550962864907,-31.413344533045,0.882246115179,0.057608680735,5238355.2266204,-3199180.5473262095,2286136.5691951127,-482.065667526748,5919.015153410464,3768.828729723337,2.335531e-06,2.174074e-06,-2.5589e-08,-0.103687635059,-0.000104237917,-0.001596900706,1.0307e-08,2.104855e-06,-9.72299e-07,-0.000156245647,0.103699866002,2.8324e-08,249.858084166139,-0.001601997719,0.000973819561,249.857700776263,0.002098036549,249.865168869439,0.001895321037,-15.221251011741,45.202836860894,-3.88894e-07,-15.999957657197,45.000051486079,-9.6191e-08,9.271487e-06,9.439451e-06,1.3231514e-05,-4.19574e-07,4.0431816e-05,4.1165501e-05,5.7701874e-05,0.475123061633,-0.495935238343,-0.714149074453,0.135267938299,0.475123061633,-0.495935238343,-0.714149074453,0.135267938299,10.334918836963,680.564265832714,6.44e-10,837.879112249164,0.000196415236,1.518047794271,141.255888051325,300.0,44.42984554188,0.640955666278,0.048901488174,0.308223725705,0.000246270887,0.001643423138,9.646207e-06,1.9779612e-05,0.028801817693,24019.048361338802,3.293e-09,1.0,1.999442919942,300,626.115104854686
13.5,45,1,626.115104854686,173821.20900899553,0,7034.345072080452,-16.192267774875,45.268851756951,20.563507176713,-31.399899850282,0.90232741605,0.058924170713,5238210.606920143,-3197404.8427801863,2287267.2178140297,-484.025664415755,5920.39137972245,3767.850270405862,2.335531e-06,2.174074e-06,-2.5589e-08,-0.105976899633,-0.000108837477,-0.001668963107,-3.5555e-08,-6.376984e-06,2.435246e-06,-0.000160120624,0.105989975472,1.64965e-07,249.858084166139,-0.001601997719,0.000973819561,249.857700776263,0.002098036549,249.865168869439,0.001928061521,-15.203476614833,45.207551999745,-4.17538e-07,-15.99995483231,45.000054297848,-9.5481e-08,9.416289e-06,9.372564e-06,1.3286104e-05,-4.16482e-07,4.1063272e-05,4.0873811e-05,5.7939919e-05,0.4751230755,-0.495935259394,-0.714149050699,0.135267937823,0.4751230755,-0.495935259394,-0.714149050699,0.135267937823,10.357487061052,679.155574186719,6.58e-10,835.897656492922,0.000199965823,1.517406167615,144.076759333861,300.0,43.495930695518,0.642642730131,0.049285265914,0.30613715079,0.000242116039,0.001663919199,9.5575e-06,1.9260427e-05,0.029440907782,24034.590361262886,3.368e-09,1.0,1.999442919942,300,626.115104854686
13.8,46,1,626.115104854686,173236.1002655293,0,7035.113938707375,-16.194614206339,45.274940618003,20.576052477096,-31.386450140665,0.922410038256,0.060240027057,5238065.399220818,-3195628.72536627,2288397.5728951516,-485.986137464211,5921.767303520778,3766.871063328246,2.335531e-06,2.174074e-06,-2.5589e-08,-0.108308222778,-0.000113691995,-0.001743432488,-4.5414e-08,-1.200857e-05,3.25406e-06,-0.000163940714,0.108322189451,1.96739e-07,249.858084166139,-0.001601997719,0.000973819561,249.857700776263,0.002098036549,249.865168869439,0.001960368037,-15.185698874464,45.212271765375,-4.46917e-07,-15.999952139033,45.000057159876,-9.793e-08,8.977589e-06,9.540093e-06,1.3100384e-05,-4.27148e-07,3.9150177e-05,4.1604385e-05,5.7130059e-05,0.475123089662,-0.495935280371,-0.714149026851,0.135267937077,0.475123089662,-0.495935280371,-0.714149026851,0.135267937077,10.380165137078,677.745859126836,6.72e-10,833.918324007592,0.000203590255,1.516761107731,146.964015534168,300.0,42.579319066951,0.644327847199,0.049676780275,0.304044433594,0.000238015203,0.001684709007,9.46941e-06,1.8745312e-05,0.030095903385,24050.157387162595,3.446e-09,1.0,1.999442919942,300,626.115104854686
14.1,47,1,626.115104854686,172650.84606531114,0,7035.883050595478,-16.196958585567,45.281034505233,20.588598765499,-31.3729953998,0.942493807861,0.061556179039,5237919.603379577,-3193852.1951752133,2289527.6342141503,-487.947086764108,5923.142924450252,3765.891108185423,2.335531e-06,2.174074e-06,-2.5589e-08,-0.110712364082,-0.000118765572,-0.001821002792,-4.7284e-08,-1.1118848e-05,3.258201e-06,-0.000167608677,0.110727275883,1.95369e-07,249.858084166139,-0.001601997719,0.000973819561,249.857700776263,0.002098036549,249.865168869439,0.001992220344,-15.167917964007,45.216996234037,-4.77236e-07,-15.999949693593,45.000060089062,-1.01061e-07,8.151468e-06,9.763953e-06,1.2719726e-05,-4.40773e-07,3.5547606e-05,4.2580603e-05,5.5470121e-05,0.475123102941,-0.495935301508,-0.714149003333,0.135267937105,0.475123102941,-0.495935301508,-0.714149003333,0.135267937105,10.403438598579,676.303607112828,6.87e-10,831.856851038865,0.000207296764,1.51611541106,149.935603992605,300.0,41.674380193712,0.646005282232,0.050072741806,0.301954993028,0.000233972139,0.001705393535,9.383284e-06,1.8233976e-05,0.03077110889,24065.60331456957,3.526e-09,1.0,1.999442919942,300,626.115104854686
14.4,48,1,626.115104854686,172065.4464429685,0,7036.652407726428,-16.19930091192,45.287133422083,20.601146041363,-31.359535623289,0.962578609756,0.062872609361,5237773.219253549,-3192075.252297878,2290657.401546606,-489.908512406264,5924.518242142925,3764.910404664325,2.335531e-06,2.174074e-06,-2.5589e-08,-0.113185718593,-0.000124026316,-0.001901426046,-4.9227e-08,-1.0189728e-05,3.26162e-06,-0.00017138313,0.113201626865,1.93882e-07,249.858084166139,-0.001601997719,0.000973819561,249.857700776263,0.002098036549,249.865168869439,0.002023613498,-15.150133998011,45.221725426616,-5.08531e-07,-15.999947477626,45.000063085491,-1.04319e-07,7.386556e-06,9.988098e-06,1.2423131e-05,-4.54958e-07,3.2211952e-05,4.3558063e-05,5.4176764e-05,0.475123114592,-0.495935322776,-0.714148980552,0.135267938477,0.475123114592,-0.495935322776,-0.714148980552,0.135267938477,10.427141200461,674.840042198256,7.02e-10,829.735915663164,0.000211085466,1.515471458441,152.988938088958,300.0,40.782802533425,0.647666545293,0.050473941913,0.299876232959,0.00022999175,0.001726259528,9.300372e-06,1.7728185e-05,0.031465948765,24080.917416138247,3.608e-09,1.0,1.999442919942,300,626.115104854686
14.7,49,1,626.115104854686,171479.90143316318,0,7037.422010083615,-16.201641184761,45.293237372,20.613694304128,-31.34607080673,0.982664463418,0.06418931754,5237626.246699829,-3190297.8968252353,2291786.8746680054,-491.870414481632,5925.893256232001,3763.928952452616,2.335531e-06,2.174074e-06,-2.5589e-08,-0.115722895027,-0.000129617453,-0.001984570642,1.5858e-08,-1.2111445e-05,-4.65742e-07,-0.000175368247,0.11573985053,4.7855e-08,249.858084166139,-0.001601997719,0.000973819561,249.857700776263,0.002098036549,249.865168869439,0.002054547293,-15.132346956431,45.226459346582,-5.40845e-07,-15.999945471958,45.000066149235,-1.07711e-07,6.685561e-06,1.0212477e-05,1.2206679e-05,-4.69726e-07,2.9155034e-05,4.4536549e-05,5.3232893e-05,0.47512312473,-0.495935344195,-0.714148958433,0.135267941116,0.47512312473,-0.495935344195,-0.714148958433,0.135267941116,10.450763869996,673.38828985391,7.18e-10,827.64060155007,0.000214956535,1.514827859872,156.112342135548,300.0,39.90889324914,0.649314017046,0.050882327852,0.297803210194,0.000226066585,0.001747927685,9.220949e-06,1.7229688e-05,0.032177623916,24096.22180365248,3.692e-09,1.0,1.999442919942,300,626.115104854686
15.0,50,1,626.115104854686,170894.2110705929,0,7038.191857652996,-16.203979403452,45.29934635843,20.626243553231,-31.332600945718,1.002751389142,0.065506303108,5237478.685575483,-3188520.1288483655,2292916.0533537413,-493.83279308134,5927.267966352494,3762.946751239244,2.335531e-06,2.174074e-06,-2.5589e-08,-0.118342464608,-0.000135276763,-0.002071052594,1.6759e-08,-1.1167859e-05,-5.52142e-07,-0.000179368629,0.118360526845,4.5123e-08,249.858084166139,-0.001601997719,0.000973819561,249.857700776263,0.002098036549,249.865168869439,0.002085021524,-15.114556818412,45.231197997391,-5.72832e-07,-15.999943716248,45.000069203368,-1.06626e-07,5.852365e-06,1.0180445e-05,1.1743211e-05,-4.64969e-07,2.55216e-05,4.4396827e-05,5.1211781e-05,0.475123133473,-0.495935365791,-0.714148936896,0.135267944937,0.475123133473,-0.495935365791,-0.714148936896,0.135267944937,10.474933199131,671.908042166476,7.34e-10,825.506633216255,0.000218937445,1.514168122271,159.339774919546,300.0,39.04377455305,0.651010365274,0.051287488536,0.295684120422,0.000222127741,0.0017700223,9.14171e-06,1.6734017e-05,0.032914058224,24111.68626020278,3.779e-09,1.0,1.999442919942,300,626.115104854686
